"stop_id","stop_code","stop_name","stop_desc","stop_lat","stop_lon","zone_id","stop_url","location_type","parent_station","stop_timezone","wheelchair_boarding"
"1","12029201","Abtsroda Sieblos","","50.506547","9.910845","1801","","0","","",""
"2","12029202","Abtsroda Sieblos","","50.50654","9.908987","1801","","0","","",""
"3","12029301","Abtsroda","","50.508613","9.925035","1801","","0","","",""
"4","12029302","Abtsroda","","50.508563","9.92513","1801","","0","","",""
"5","12029101","Abtsroda Tränkhof","","50.498842","9.893133","1801","","0","","",""
"6","12029102","Abtsroda Tränkhof","","50.498807","9.893127","1801","","0","","",""
"7","12021601","Allmus","","50.595265","9.813925","2068","","0","","",""
"8","12021602","Allmus","","50.594918","9.813013","2068","","0","","",""
"9","12015101","Almendorf","","50.575912","9.74597","2035","","0","","",""
"10","12015102","Almendorf","","50.57603","9.746092","2035","","0","","",""
"11","12025901","Armenhof Sägewerk","","50.562428","9.785438","2074","","0","","",""
"12","12025902","Armenhof Sägewerk","","50.562372","9.785538","2074","","0","","",""
"13","12026001","Armenhof Waldstraße","","50.560513","9.794313","2074","","0","","",""
"14","12026002","Armenhof Waldstraße","","50.560528","9.792427","2074","","0","","",""
"15","12217201","Arzell Friedhof","","50.763412","9.777893","1653","","0","","",""
"16","12271202","Arzell Friedhof","","50.763118","9.777627","1653","","0","","",""
"17","12217301","Arzell Kindergarten","","50.763037","9.78262","1653","","0","","",""
"18","12217401","Arzell Kirschenmühle","","50.766991","9.773879","1653","","0","","",""
"19","12217402","Arzell Kirschenmühle","","50.766937","9.773822","1653","","0","","",""
"20","12217101","Arzell Ortsmitte","","50.762808","9.78026","1653","","0","","",""
"21","12217102","Arzell Ortsmitte","","50.762765","9.780033","1653","","0","","",""
"22","12222401","Altschwambach Kreuzung","","50.601912","9.980912","1713","","0","","",""
"23","12222402","Altschwambach Kreuzung","","50.601878","9.980913","1713","","0","","",""
"24","12224901","Aura","","50.58324","9.983533","1713","","0","","",""
"25","12224902","Aura","","50.5833","9.983598","1713","","0","","",""
"26","12025001","Künzell Bachrain Kirche","","50.539330186","9.705035537","2030","","0","","",""
"27","12025002","Künzell Bachrain Kirche","","50.539147359","9.705498219","2030","","0","","",""
"28","12025201","Künzell Bachrain Sportplatz","","50.535437","9.712533","2030","","0","","",""
"29","12025202","Künzell Bachrain Sportplatz","","50.535473","9.71234","2030","","0","","",""
"30","12027401","Batten Findlos Abzweig","","50.551285","10.00282","1740","","0","","",""
"31","12027402","Batten Findlos Abzweig","","50.55133","10.002755","1740","","0","","",""
"32","12091101","Batten Industriegebiet","","50.557995","10.008378","1740","","0","","",""
"33","12096701","Batten","","50.555822","10.009178","1740","","0","","",""
"34","12096702","Batten","","50.555082","10.009202","1740","","0","","",""
"35","12096703","Batten","","50.554988","10.00989","1740","","0","","",""
"36","12016101","Bernhards Steinbrücke","","50.6074","9.727502","2060","","0","","",""
"37","12016102","Bernhards Steinbrücke","","50.607479","9.727318","2060","","0","","",""
"38","12016201","Bernhards Ortsmitte","","50.601067","9.721855","2060","","0","","",""
"39","12016202","Bernhards Ortsmitte","","50.601058","9.722043","2060","","0","","",""
"40","12020201","Besges","","50.550975","9.592882","2001","","0","","",""
"41","12020202","Besges","","50.550998","9.592798","2001","","0","","",""
"42","12048201","Betzenrod","","50.733505","9.773415","1629","","0","","",""
"43","12048202","Betzenrod","","50.733847","9.773812","1629","","0","","",""
"44","11104701","Burghaun Bahnhof","","50.701253","9.726918","1650","","0","","",""
"45","11104702","Burghaun Bahnhof","","50.701353","9.726848","1650","","0","","",""
"46","12046801","Burghaun Brücke","","50.700038","9.729347","1650","","0","","",""
"47","12046802","Burghaun Brücke","","50.700068","9.729373","1650","","0","","",""
"48","12098801","Burghaun Grubener Straße","","50.699590464","9.738596678","1650","","0","","",""
"49","12098802","Burghaun Grubener Straße","","50.699598","9.7395","1650","","0","","",""
"50","12009501","Burghaun Marktplatz","","50.697583","9.726862","1650","","0","","",""
"51","12009502","Burghaun Marktplatz","","50.697538","9.726985","1650","","0","","",""
"52","12009101","Burghaun Schule","","50.705283","9.725067","1650","","0","","",""
"53","12094401","Burghaun Schlossstraße","","50.696597","9.723358","1650","","0","","",""
"54","12039901","Bimbach Feuerwehrhaus","","50.574547","9.575182","2109","","0","","",""
"55","12039902","Bimbach Feuerwehrhaus","","50.574567","9.575232","2109","","0","","",""
"56","12056701","Bimbach Gaststätte Linde","","50.573825","9.57051","2109","","0","","",""
"57","12237101","Bimbach Im Lüdertal","","50.575756","9.565556","2109","","0","","",""
"58","12056301","Bimbach Lütterzer Straße","","50.576488","9.581712","2109","","0","","",""
"59","12056302","Bimbach Lütterzer Straße","","50.576535","9.581783","2109","","0","","",""
"60","12093001","Bimbach Milseburgstraße","","50.575592","9.585918","2109","","0","","",""
"61","12056601","Bimbach Reiterhof","","50.57438","9.558878","2109","","0","","",""
"62","12056602","Bimbach Reiterhof","","50.574288","9.55857","2109","","0","","",""
"63","12040001","Bimbach Am Sägewerk","","50.575287","9.564127","2109","","0","","",""
"64","12040002","Bimbach Am Sägewerk","","50.575262","9.564167","2109","","0","","",""
"65","12041801","Blankenau Bürgerhaus MP","","50.543338","9.46604","2101","","0","","",""
"66","12040801","Blankenau Friedhofstraße","","50.54452","9.474765","2101","","0","","",""
"67","12040802","Blankenau Friedhofstraße","","50.544502","9.474545","2101","","0","","",""
"68","12027601","Brand Am Berg","","50.533363","9.956085","1740","","0","","",""
"69","12027602","Brand Am Berg","","50.533393","9.956417","1740","","0","","",""
"70","12041301","Brandlos","","50.483893","9.482167","2128","","0","","",""
"71","12090301","Brand Ortsmitte","","50.531788","9.956527","1740","","0","","",""
"72","12090302","Brand Ortsmitte","","50.53196","9.956588","1740","","0","","",""
"73","12237601","Schachen Brembach","","50.459958","9.9221","1847","","0","","",""
"74","12208601","Bronnzell Fasaneriestraße","","50.512247","9.6796","2001","","0","","",""
"75","12222901","Bronnzell Am Röhlingsberg","","50.51829","9.680425","2001","","0","","",""
"76","12222902","Bronnzell Am Röhlingsberg","","50.518147","9.680347","2001","","0","","",""
"77","12208701","Bronnzell Ziegeler Straße","","50.516123","9.67973","2001","","0","","",""
"78","12208702","Bronnzell Ziegeler Straße","","50.516267","9.679663","2001","","0","","",""
"79","12001201","Bad Salzschlirf Kurpark","","50.625982","9.503153","2125","","0","","",""
"80","12056501","Bad Salzschlirf Lärchenweg","","50.616282","9.50225","2125","","0","","",""
"81","12056502","Bad Salzschlirf Lärchenweg","","50.61625","9.502305","2125","","0","","",""
"82","12056401","Bad Salzschlirf Rathaus","","50.624738","9.507195","2125","","0","","",""
"83","12056402","Bad Salzschlirf Rathaus","","50.624482","9.507393","2125","","0","","",""
"84","12047501","Bad Salzschlirf Riedstraße","","50.621508","9.505807","2125","","0","","",""
"85","12047502","Bad Salzschlirf Riedstraße","","50.621435","9.505368","2125","","0","","",""
"86","12001101","Bad Salzschlirf Schlitzer Straße","","50.628261","9.507187","2125","","0","","",""
"87","12073401","Buchenau Branders","","50.787257","9.787053","1618","","0","","",""
"88","12053901","Buchenau","","50.780942","9.768973","1618","","0","","",""
"89","12053902","Buchenau","","50.780682","9.769195","1618","","0","","",""
"90","12068301","Buchenrod","","50.448163","9.510127","1942","","0","","",""
"91","12015501","Böckels B 458","","50.549557545","9.761072248","2064","","0","","",""
"92","12015502","Böckels B 458","","50.549485964","9.761119187","2064","","0","","",""
"93","12030801","Büchenberg Gershof","","50.439982","9.701377","1846","","0","","",""
"94","12030802","Büchenberg Gershof","","50.44","9.701277","1846","","0","","",""
"95","12031301","Büchenberg","","50.434687","9.710115","1846","","0","","",""
"96","12031302","Büchenberg","","50.43582","9.710777","1846","","0","","",""
"97","12067301","Dalherda","","50.417833","9.826713","1806","","0","","",""
"98","12067302","Dalherda","","50.417385","9.82718","1806","","0","","",""
"99","12013501","Dammersbach","","50.629117","9.776062","1645","","0","","",""
"100","12025501","Dassen","","50.508125","9.780225","2077","","0","","",""
"101","12025502","Dassen","","50.508042","9.780265","2077","","0","","",""
"102","12017001","Dietershan Abzw. Dietershan","","50.590772","9.711868","2001","","0","","",""
"103","12017002","Dietershan Abzw. Dietershan","","50.59068","9.711772","2001","","0","","",""
"104","12016401","Dietershan Ortsmitte","","50.601128","9.701203","2060","","0","","",""
"105","12027701","Dietges","","50.528838","9.930842","1728","","0","","",""
"106","12228301","Dietgeshof","","50.651065","10.035277","1710","","0","","",""
"107","12228302","Dietgeshof","","50.65113","10.035333","1710","","0","","",""
"108","12016001","Dietershan Wendelinusstraße","","50.601214366","9.706609994","2060","","0","","",""
"109","12016002","Dietershan Wendelinusstraße","","50.60114","9.706388","2060","","0","","",""
"110","12026801","Dipperz Eckartsmühle","","50.538392","9.810028","2070","","0","","",""
"111","12026802","Dipperz Eckartsmühle","","50.538042","9.810297","2070","","0","","",""
"112","12026901","Dipperz Evangelische Kirche","","50.540743","9.802187","2070","","0","","",""
"113","12026902","Dipperz Evangelische Kirche","","50.540615","9.802573","2070","","0","","",""
"114","12026601","Dipperz Gasthaus Kircher","","50.543323","9.793781","2070","","0","","",""
"115","12026602","Dipperz Gasthaus Kircher","","50.5433","9.792902","2070","","0","","",""
"116","12007801","Dipperz Am Holzbach","","50.542086136","9.788967222","2070","","0","","",""
"117","12007802","Dipperz Am Holzbach","","50.542257446","9.789311886","2070","","0","","",""
"118","12095801","Dipperz Külos","","50.538988","9.81813","2070","","0","","",""
"119","12095802","Dipperz Külos","","50.538985","9.818182","2070","","0","","",""
"120","12096001","Dipperz Langenbieberstraße","","50.54349","9.797078","2070","","0","","",""
"121","12096002","Dipperz Langenbieberstraße","","50.543562","9.797287","2070","","0","","",""
"122","12226701","Dippach","","50.614983","10.031097","1710","","0","","",""
"123","12226702","Dippach","","50.614963","10.031098","1710","","0","","",""
"124","12095901","Dipperz Rhönstraße","","50.5418","9.80701","2070","","0","","",""
"125","12095902","Dipperz Rhönstraße","","50.541785","9.807162","2070","","0","","",""
"126","12010701","Dirlos DGH","","50.523433","9.74918","2077","","0","","",""
"127","12010702","Dirlos DGH","","50.523527","9.748678","2077","","0","","",""
"128","12011001","Dirlos Grumbachweg","","50.522045","9.754565","2077","","0","","",""
"129","12011002","Dirlos Grumbachweg","","50.522263","9.753968","2077","","0","","",""
"130","12028101","Dirlos Kohlgrunder Straße","","50.523785","9.755637","2077","","0","","",""
"131","12025401","Dirlos Loheland Abzweig","","50.515663","9.766587","2077","","0","","",""
"132","12025402","Dirlos Loheland Abzweig","","50.51513","9.767118","2077","","0","","",""
"133","12054501","Dirlos Loheland Schule","","50.51344","9.762498","2077","","0","","",""
"134","12010901","Dittlofrod","","50.756102","9.744682","1618","","0","","",""
"135","12010902","Dittlofrod","","50.756218","9.744775","1618","","0","","",""
"136","12094101","Danzwiesen Milseburg Parkplatz","","50.553965","9.896723","1701","","0","","",""
"137","12094102","Danzwiesen Milseburg Parkplatz","","50.55326","9.895872","1701","","0","","",""
"138","12065601","Dorfborn Rippachstraße","","50.466168","9.623703","1920","","0","","",""
"139","12065602","Dorfborn Rippachstraße","","50.465992","9.623805","1920","","0","","",""
"140","12034301","Dorfborn In der Au","","50.465877","9.630492","1920","","0","","",""
"141","12034302","Dorfborn In der Au","","50.465902","9.630548","1920","","0","","",""
"142","12025801","Dietershausen Gärtnerei","","50.500757","9.79627","2075","","0","","",""
"143","12025802","Dietershausen Gärtnerei","","50.501557","9.79586","2075","","0","","",""
"144","12025701","Dietershausen Ortsmitte","","50.505397","9.79555","2075","","0","","",""
"145","12025702","Dietershausen Ortsmitte","","50.505273","9.795423","2075","","0","","",""
"146","12031501","Döllbach","","50.443093","9.734042","1840","","0","","",""
"147","12031502","Döllbach","","50.443018","9.733972","1840","","0","","",""
"148","12038701","Döngesmühle Kirche","","50.430195","9.546005","1925","","0","","",""
"149","12038702","Döngesmühle Kirche","","50.430262","9.545952","1925","","0","","",""
"150","12038801","Döngesmühle Am Mühlberg","","50.43086","9.540435","1925","","0","","",""
"151","12038802","Döngesmühle Am Mühlberg","","50.430938","9.540908","1925","","0","","",""
"152","12028001","Dörmbach","","50.562263","9.922095","1728","","0","","",""
"153","12028002","Dörmbach","","50.562162","9.922225","1728","","0","","",""
"154","12029701","Ebersberg Altenmühle","","50.48495","9.817243","1822","","0","","",""
"155","12029702","Ebersberg Altenmühle","","50.484843","9.816997","1822","","0","","",""
"156","12092201","Ebersberg Oberrod","","50.468518","9.833897","1822","","0","","",""
"157","12029901","Ebersberg Oberlütter","","50.482808","9.807202","1822","","0","","",""
"158","12029902","Ebersberg Oberlütter","","50.482827","9.808643","1822","","0","","",""
"159","12046101","Ebersberg Röderhaid","","50.480227","9.823132","1822","","0","","",""
"160","12046102","Ebersberg Röderhaid","","50.48022","9.823057","1822","","0","","",""
"161","12092101","Ebersberg Schafhof","","50.474055","9.832643","1822","","0","","",""
"162","12092102","Ebersberg Schafhof","","50.474112","9.832598","1822","","0","","",""
"163","12222101","Eckweisbach Ortsmitte","","50.571868","9.957785","1740","","0","","",""
"164","12222102","Eckweisbach Ortsmitte","","50.571898","9.957617","1740","","0","","",""
"165","12028401","Eckweisbach Raiffeisen","","50.571258","9.954142","1740","","0","","",""
"166","12028402","Eckweisbach Raiffeisen","","50.571083","9.95387","1740","","0","","",""
"167","12206101","Edelzell Berg","","50.523273","9.701457","2001","","0","","",""
"168","12206102","Edelzell Berg","","50.523724","9.701466","2001","","0","","",""
"169","12223301","Edelzell Bürgerhaus","","50.526812","9.704525","2001","","0","","",""
"170","12223302","Edelzell Bürgerhaus","","50.526543","9.705207","2001","","0","","",""
"171","12233301","Edelzell Chattenstraße","","50.528203","9.701216","2001","","0","","",""
"172","12233302","Edelzell Chattenstraße","","50.528068","9.70142","2001","","0","","",""
"173","12233303","Edelzell Chattenstraße","","50.528848","9.700214","2001","","0","","",""
"174","12233304","Edelzell Chattenstraße","","50.528761","9.700207","2001","","0","","",""
"175","12223201","Edelzell Heussstraße","","50.526188","9.708548","2001","","0","","",""
"176","12223202","Edelzell Heussstraße","","50.525907","9.708393","2001","","0","","",""
"177","12235201","Edelzell Stauferring","","50.528752","9.697483","2001","","0","","",""
"178","12235202","Edelzell Stauferring","","50.528792","9.697455","2001","","0","","",""
"179","12022201","Egelmes Rödergrund","","50.595353","9.87236","1725","","0","","",""
"180","12022202","Egelmes Rödergrund","","50.595523","9.872463","1725","","0","","",""
"181","12232401","Eichenzell Dalbergstraße","","50.497153","9.703548","1802","","0","","",""
"182","12232402","Eichenzell Dalbergstraße","","50.497102","9.703487","1802","","0","","",""
"183","12237301","Eichenzell Gartenstraße","","50.497025","9.692835","1802","","0","","",""
"184","12237302","Eichenzell Gartenstraße","","50.497145","9.692713","1802","","0","","",""
"185","12037301","Eichenzell Gerbachshof","","50.50179","9.687658","1802","","0","","",""
"186","12037302","Eichenzell Gerbachshof","","50.501757","9.687635","1802","","0","","",""
"187","12040301","Eichenau","","50.610507","9.521332","2109","","0","","",""
"188","12040303","Eichenau","","50.610712","9.521474","2109","","0","","",""
"189","12036201","Eichenried","","50.396228","9.651495","1901","","0","","",""
"190","12099001","Eichenzell Kulturscheune","","50.492088","9.699417","1802","","0","","",""
"191","12099002","Eichenzell Kulturscheune","","50.491992","9.699482","1802","","0","","",""
"192","12099901","Eichenzell Rhönhof","","50.487982","9.707177","1802","","0","","",""
"193","12099902","Eichenzell Rhönhof","","50.487895","9.707245","1802","","0","","",""
"194","12057501","Eichenzell Sachsenhausen","","50.491518","9.69127","1802","","0","","",""
"195","12057502","Eichenzell Sachsenhausen","","50.49139","9.691568","1802","","0","","",""
"196","12237501","Eichenzell Wohlhaupter Straße","","50.499823","9.697262","1802","","0","","",""
"197","12237502","Eichenzell Wohlhaupter Straße","","50.499848","9.6973","1802","","0","","",""
"198","12012101","Eiterfeld evangelische Kirche","","50.758898","9.804543","1653","","0","","",""
"199","12012102","Eiterfeld evangelische Kirche","","50.758842","9.804322","1653","","0","","",""
"200","12048301","Eiterfeld Schule","","50.762963","9.794503","1653","","0","","",""
"201","12048302","Eiterfeld Schule","","50.762965","9.794025","1653","","0","","",""
"202","12048303","Eiterfeld Schule","","50.762975","9.79359","1653","","0","","",""
"203","12048305","Eiterfeld Schule","","50.762919927","9.794782251","1653","","0","","",""
"204","12048306","Eiterfeld Schule","","50.76291","9.794325","1653","","0","","",""
"205","12048307","Eiterfeld Schule","","50.762885","9.793881","1653","","0","","",""
"206","12096101","Elters Ortsmitte","","50.579692","9.880072","1701","","0","","",""
"207","12096102","Elters Ortsmitte","","50.579713","9.88002","1701","","0","","",""
"208","12054401","Elters Schäferweg","","50.577927","9.884842","1701","","0","","",""
"209","12054402","Elters Schäferweg","","50.577907","9.884822","1701","","0","","",""
"210","12206301","Engelhelms Bürgerhaus","","50.518538","9.706957","2030","","0","","",""
"211","12206302","Engelhelms Bürgerhaus","","50.518402","9.707383","2030","","0","","",""
"212","12206201","Engelhelms Ortsmitte","","50.516388","9.711912","2030","","0","","",""
"213","12206202","Engelhelms Ortsmitte","","50.516788","9.711785","2030","","0","","",""
"214","12223901","Engelhelms Am Riedrain","","50.520117","9.704395","2030","","0","","",""
"215","12223902","Engelhelms Am Riedrain","","50.519965","9.70458","2030","","0","","",""
"216","12092901","Engelhelms Ringstraße","","50.514447","9.713413","2030","","0","","",""
"217","12024402","Esbachsgraben","","50.620718","9.98873","1710","","0","","",""
"218","12024403","Esbachsgraben","","50.620752","9.988808","1710","","0","","",""
"219","12220401","Fulda Aachener Straße","","50.570488","9.647686","2001","","0","","",""
"220","12220402","Fulda Aachener Straße","","50.57108","9.647066","2001","","0","","",""
"221","12211901","Fulda Aschenbergplatz","","50.575650458","9.659482241","2001","","0","","",""
"222","12211902","Fulda Aschenbergplatz","","50.575715","9.6596","2001","","0","","",""
"223","12213501","Fulda Abtstor","","50.552680152","9.670740142","2001","","0","","",""
"224","12213502","Fulda Abtstor","","50.552485022","9.671273902","2001","","0","","",""
"225","12214001","Fulda Abt-Richard-Straße","","50.551185","9.656695","2001","","0","","",""
"226","12214002","Fulda Abt-Richard-Straße","","50.550945","9.654177","2001","","0","","",""
"227","12208501","Fulda Adalbertstraße","","50.558442522","9.676600099","2001","","0","","",""
"228","12208502","Fulda Adalbertstraße","","50.558523461","9.6765773","2001","","0","","",""
"229","12211401","Fulda Adenauerstraße","","50.575542","9.663358","2001","","0","","",""
"230","12211402","Fulda Adenauerstraße","","50.575606","9.663156","2001","","0","","",""
"231","12204002","Fulda Ahornweg","","50.560888","9.68847","2001","","0","","",""
"232","12207801","Fulda Am Jagdstein","","50.550433123","9.694566876","2001","","0","","",""
"233","12207802","Fulda Am Jagdstein","","50.551115","9.693922","2001","","0","","",""
"234","12207701","Fulda Am Kleegarten","","50.547907323","9.696566463","2001","","0","","",""
"235","12207702","Fulda Am Kleegarten","","50.547953","9.696577","2001","","0","","",""
"236","12213401","Fulda Am Kronhof","","50.554460998","9.669692069","2001","","0","","",""
"237","12213402","Fulda Am Kronhof","","50.555388034","9.669714868","2001","","0","","",""
"238","12213001","Fulda An der Liede","","50.568121428","9.650373459","2001","","0","","",""
"239","12213002","Fulda An der Liede","","50.568142724","9.650389552","2001","","0","","",""
"240","12016701","Fulda Amand-Ney-Straße","","50.559485","9.680673","2001","","0","","",""
"241","12016702","Fulda Amand-Ney-Straße","","50.558920487","9.678719044","2001","","0","","",""
"242","12019401","Fulda Antoniusheim","","50.55379681","9.657831341","2001","","0","","",""
"243","12019402","Fulda Antoniusheim","","50.55370223","9.657423645","2001","","0","","",""
"244","12212401","Fulda Arleser Straße","","50.573503","9.66065","2001","","0","","",""
"245","12201001","Fulda Am Rosengarten","","50.547985724","9.671845883","2001","","0","","",""
"246","12201002","Fulda Am Rosengarten","","50.547643999","9.67170909","2001","","0","","",""
"247","12017201","Fulda Am Seeseberg","","50.55255","9.695067","2001","","0","","",""
"248","12017202","Fulda Am Seeseberg","","50.552617","9.695832","2001","","0","","",""
"249","12211001","Fulda An der Steingrube","","50.567201032","9.665663391","2001","","0","","",""
"250","12211002","Fulda An der Steingrube","","50.567229142","9.665761292","2001","","0","","",""
"251","12017601","Fulda Am Schützenhaus","","50.550705805","9.687520713","2001","","0","","",""
"252","12017602","Fulda Am Schützenhaus","","50.551323597","9.687251151","2001","","0","","",""
"253","12207501","Fulda Adalbert-Stifter-Straße","","50.54761","9.702653","2001","","0","","",""
"254","12207201","Fulda An St. Johann","","50.55007352","9.711806774","2001","","0","","",""
"255","12207202","Fulda An St. Johann","","50.550015574","9.711762518","2001","","0","","",""
"256","12207203","Fulda An St. Johann","","50.550575429","9.712276161","2001","","0","","",""
"257","12080301","Fulda Aueweiher","","50.536285","9.666935","2001","","0","","",""
"258","12210901","Fulda Bachmühle","","50.541487","9.70054","2001","","0","","",""
"259","12203501","Fulda Bardoschule","","50.55089583","9.659181833","2001","","0","","",""
"260","12208301","Fulda Bellingerstraße","","50.532537","9.682614","2001","","0","","",""
"261","12208302","Fulda Bellingerstraße","","50.532538","9.682518","2001","","0","","",""
"262","12202601","Fulda Brüder-Grimm-Schule","","50.556483","9.650739","2001","","0","","",""
"263","12213301","Fulda Birkenstieg","","50.559725","9.666608","2001","","0","","",""
"264","12213302","Fulda Birkenstieg","","50.559647","9.666847","2001","","0","","",""
"265","12233201","Fulda Black-Horse-Straße","","50.552175","9.645405","2001","","0","","",""
"266","12233202","Fulda Black-Horse-Straße","","50.552185","9.645","2001","","0","","",""
"267","12211501","Fulda Horas Bonifatiusbrunnen","","50.565578","9.661392","2001","","0","","",""
"268","12211502","Fulda Horas Bonifatiusbrunnen","","50.565708","9.661925","2001","","0","","",""
"269","12019301","Fulda Bonifatiushaus","","50.551292","9.660655","2001","","0","","",""
"270","12019302","Fulda Bonifatiushaus","","50.551328","9.66069","2001","","0","","",""
"271","12227101","Fulda Brauhausstraße","","50.548315","9.677528","2001","","0","","",""
"272","12227102","Fulda Brauhausstraße","","50.548338","9.677447","2001","","0","","",""
"273","12227103","Fulda Brauhausstraße","","50.548947","9.678478","2001","","0","","",""
"274","12227104","Fulda Brauhausstraße","","50.548556","9.67673","2001","","0","","",""
"275","12212801","Fulda Brüsseler Straße","","50.575697","9.653703","2001","","0","","",""
"276","12212802","Fulda Brüsseler Straße","","50.575665","9.653773","2001","","0","","",""
"277","12230501","Fulda Buttlarstraße","","50.559191417","9.677271992","2001","","0","","",""
"278","12230502","Fulda Buttlarstraße","","50.559094291","9.677580446","2001","","0","","",""
"279","12205302","Fulda Dalberg","","50.549568","9.683182","2001","","0","","",""
"280","12016901","Fulda Daimler-Benz-Straße","","50.566766595","9.689879715","2001","","0","","",""
"281","12016902","Fulda Daimler-Benz-Straße","","50.566463","9.689748","2001","","0","","",""
"282","12205101","Fulda Dientzenhoferstraße","","50.551351716","9.690853357","2001","","0","","",""
"283","12212601","Fulda Dokkumstraße","","50.568381657","9.660850167","2001","","0","","",""
"284","12212602","Fulda Dokkumstraße","","50.569126135","9.661248475","2001","","0","","",""
"285","12220301","Fulda Dom","","50.553385682","9.673103839","2001","","0","","",""
"286","12220302","Fulda Dom","","50.553568","9.673147","2001","","0","","",""
"287","12205801","Fulda Edelzeller Brücke","","50.537009","9.691077","2001","","0","","",""
"288","12205802","Fulda Edelzeller Brücke","","50.537263","9.690874","2001","","0","","",""
"289","12032601","Fulda Edelzeller Straße","","50.540307806","9.686966836","2001","","0","","",""
"290","12032602","Fulda Edelzeller Straße","","50.540306101","9.686902463","2001","","0","","",""
"291","12054701","Fulda Am Eisweiher","","50.56370072","9.675067216","2001","","0","","",""
"292","12054702","Fulda Am Eisweiher","","50.564026995","9.674917012","2001","","0","","",""
"293","12017701","Fulda Ellerstraße","","50.546958","9.686962","2001","","0","","",""
"294","12017702","Fulda Ellerstraße","","50.547032551","9.686201066","2001","","0","","",""
"295","12032401","Fulda Am Emaillierwerk","","50.548710072","9.68956992","2001","","0","","",""
"296","12032402","Fulda Am Emaillierwerk","","50.548675985","9.689504206","2001","","0","","",""
"297","12205901","Fulda Edelzeller Siedlung","","50.535117","9.692302","2001","","0","","",""
"298","12205902","Fulda Edelzeller Siedlung","","50.535077","9.692262","2001","","0","","",""
"299","12201101","Fulda Feuerwache","","50.547352","9.661517","2001","","0","","",""
"300","12201102","Fulda Feuerwache","","50.547117","9.662347","2001","","0","","",""
"301","12201103","Fulda Feuerwache","","50.546652","9.661787","2001","","0","","",""
"302","12200601","Fulda Flemingstraße","","50.551443","9.640325","2001","","0","","",""
"303","12200602","Fulda Flemingstraße","","50.551545","9.640585","2001","","0","","",""
"304","12017901","Fulda Florengasse","","50.5477812","9.679555893","2001","","0","","",""
"305","12017902","Fulda Florengasse","","50.548028","9.68091","2001","","0","","",""
"306","12209601","Fulda Frauenberg","","50.560375651","9.674014449","2001","","0","","",""
"307","12209602","Fulda Frauenberg","","50.560551154","9.673966169","2001","","0","","",""
"308","12203101","Fulda Von-Galen-Straße","","50.566505","9.696833","2001","","0","","",""
"309","12203102","Fulda Von-Galen-Straße","","50.566483","9.696913","2001","","0","","",""
"310","12032501","Fulda Gartenstraße","","50.538801602","9.67897203","2001","","0","","",""
"311","12032502","Fulda Gartenstraße","","50.538808527","9.678909375","2001","","0","","",""
"312","12237201","Fulda Geisaer Straße","","50.571845848","9.662872553","2001","","0","","",""
"313","12237202","Fulda Geisaer Straße","","50.571794743","9.662944973","2001","","0","","",""
"314","12017501","Fulda-Galerie Emil-Nolde-Allee","","50.538288","9.639924","2001","","0","","",""
"315","12017502","Fulda-Galerie Emil-Nolde-Allee","","50.538092","9.639892","2001","","0","","",""
"316","12235901","Fulda-Galerie Jackson-Pollock-Platz","","50.538363","9.646445","2001","","0","","",""
"317","12235902","Fulda-Galerie Jackson-Pollock-Platz","","50.538225","9.646222","2001","","0","","",""
"318","12235903","Fulda-Galerie Jackson-Pollock-Platz","","50.53827","9.64545","2001","","0","","",""
"319","12235904","Fulda-Galerie Jackson-Pollock-Platz","","50.538373","9.647052","2001","","0","","",""
"320","12229901","Fulda-Galerie Mondrianplatz","","50.539024","9.650701","2001","","0","","",""
"321","12229902","Fulda-Galerie Mondrianplatz","","50.538973","9.650809","2001","","0","","",""
"322","12209301","Fulda Gummiwerke","","50.546404903","9.691216797","2001","","0","","",""
"323","12209302","Fulda Gummiwerke","","50.546262584","9.691531956","2001","","0","","",""
"324","12017101","Fulda-Galerie Westfriedhof","","50.541402","9.640594","2001","","0","","",""
"325","12017102","Fulda-Galerie Westfriedhof","","50.541364","9.639905","2001","","0","","",""
"326","12098501","Fulda-Galerie Werner-Schmid-Straße","","50.542236","9.645302","2001","","0","","",""
"327","12098502","Fulda-Galerie Werner-Schmid-Straße","","50.541967","9.645566","2001","","0","","",""
"328","12098503","Fulda-Galerie Werner-Schmid-Straße","","50.541429445","9.645811021","2001","","0","","",""
"329","12098504","Fulda-Galerie Werner-Schmid-Straße","","50.54142","9.64568","2001","","0","","",""
"330","12214101","Fulda Haderwald","","50.549323","9.647827","2001","","0","","",""
"331","12214102","Fulda Haderwald","","50.549237","9.647718","2001","","0","","",""
"332","12201701","Fulda Hainzeller Straße","","50.544153","9.662392","2001","","0","","",""
"333","12201702","Fulda Hainzeller Straße","","50.54406","9.662382","2001","","0","","",""
"334","12211701","Fulda Hartungstraße","","50.570879955","9.652943015","2001","","0","","",""
"335","12211702","Fulda Hartungstraße","","50.57081011","9.652862549","2001","","0","","",""
"336","12214201","Fulda Haderwald-Siedlung","","50.544533","9.646415","2001","","0","","",""
"337","12214202","Fulda Haderwald-Siedlung","","50.544438","9.64648","2001","","0","","",""
"338","12213201","Fulda Horas Brücke","","50.561517","9.66345","2001","","0","","",""
"339","12213202","Fulda Horas Brücke","","50.561812","9.662943","2001","","0","","",""
"340","12209901","Fulda Hermann-Muth-Straße","","50.56744","9.67484","2001","","0","","",""
"341","12209902","Fulda Hermann-Muth-Straße","","50.567583","9.674998","2001","","0","","",""
"342","12020601","Fulda Herz-Jesu-Krankenhaus","","50.562014787","9.674727917","2001","","0","","",""
"343","12020602","Fulda Herz-Jesu-Krankenhaus","","50.561878478","9.674709141","2001","","0","","",""
"344","12098701","Fulda Heinrich-von-Kleist-Straße","","50.551647401","9.706490636","2001","","0","","",""
"345","12098702","Fulda Heinrich-von-Kleist-Straße","","50.552037668","9.706139266","2001","","0","","",""
"346","12016801","Fulda Hochschule","","50.564234856","9.687623978","2001","","0","","",""
"347","12016802","Fulda Hochschule","","50.563231322","9.686697274","2001","","0","","",""
"348","12212301","Fulda Hünfelder Straße","","50.575918","9.665192","2001","","0","","",""
"349","12212302","Fulda Hünfelder Straße","","50.576157","9.66521","2001","","0","","",""
"350","12213101","Fulda Horas Ortsmitte","","50.564656538","9.659274369","2001","","0","","",""
"351","12213102","Fulda Horas Ortsmitte","","50.56432","9.659635","2001","","0","","",""
"352","12235801","Fulda Im Fischfeld","","50.541675","9.678575","2001","","0","","",""
"353","12235802","Fulda Im Fischfeld","","50.541498","9.67867","2001","","0","","",""
"354","12208401","Fulda Kohlhaus Isarstraße","","50.530365","9.683922","2001","","0","","",""
"355","12208402","Fulda Kohlhaus Isarstraße","","50.530333","9.683892","2001","","0","","",""
"356","12200401","Fulda Kohlhaus Kaiserwiesen","","50.529132","9.69041","2001","","0","","",""
"357","12200402","Fulda Kohlhaus Kaiserwiesen","","50.529212","9.69017","2001","","0","","",""
"358","12019601","Fulda Kettelerstraße","","50.552702","9.652695","2001","","0","","",""
"359","12019602","Fulda Kettelerstraße","","50.552877","9.653108","2001","","0","","",""
"360","12209101","Fulda Künzeller Höhe","","50.543403","9.701313","2001","","0","","",""
"361","12209102","Fulda Künzeller Höhe","","50.543748","9.701323","2001","","0","","",""
"362","12236701","Fulda Kinderakademie","","50.545358","9.68693","2001","","0","","",""
"363","12236702","Fulda Kinderakademie","","50.5455354","9.687031","2001","","0","","",""
"364","12235101","Fulda Klinikum/St.-Pius-Kirche","","50.548487656","9.708639085","2001","","0","","",""
"365","12235102","Fulda Klinikum/St.-Pius-Kirche","","50.548274612","9.708682001","2001","","0","","",""
"366","12207301","Fulda Klinikum","","50.548330004","9.706392735","2001","","0","","",""
"367","12207302","Fulda Klinikum","","50.548473","9.706719","2001","","0","","",""
"368","12211301","Fulda König-Konrad-Straße","","50.576327","9.669172","2001","","0","","",""
"369","12211302","Fulda König-Konrad-Straße","","50.576479","9.670247","2001","","0","","",""
"370","12235701","Fulda Kreuzbergstraße","","50.538306","9.693789","2001","","0","","",""
"371","12235702","Fulda Kreuzbergstraße","","50.538401","9.693695","2001","","0","","",""
"372","12237002","Fulda Kurfürstenstraße","","50.556313348","9.680947959","2001","","0","","",""
"373","12030901","Fulda Lechstraße","","50.54205588","9.683247954","2001","","0","","",""
"374","12030902","Fulda Lechstraße","","50.542073778","9.683205038","2001","","0","","",""
"375","12212901","Fulda Luxemburger Straße","","50.573075","9.645285","2001","","0","","",""
"376","12212902","Fulda Luxemburger Straße","","50.574418","9.64534","2001","","0","","",""
"377","12020402","Fulda Löhertor","","50.546528","9.673842","2001","","0","","",""
"378","12235301","Fulda Mackenrodtstraße","","50.56615071","9.673058242","2001","","0","","",""
"379","12235302","Fulda Mackenrodtstraße","","50.56606808","9.673722088","2001","","0","","",""
"380","12205701","Fulda Mainstraße","","50.537097","9.683262","2001","","0","","",""
"381","12205702","Fulda Mainstraße","","50.537033","9.683193","2001","","0","","",""
"382","12212501","Fulda Mainzer Straße","","50.573487","9.663605","2001","","0","","",""
"383","12018001","Fulda Martin-Luther-Platz","","50.543515","9.676253","2001","","0","","",""
"384","12018002","Fulda Martin-Luther-Platz","","50.54385","9.675872","2001","","0","","",""
"385","12234101","Fulda Kohlhaus Marienplatz","","50.529285","9.681923","2001","","0","","",""
"386","12234102","Fulda Kohlhaus Marienplatz","","50.529142","9.682885","2001","","0","","",""
"387","12220202","Fulda Marienschule","","50.552061953","9.683407545","2001","","0","","",""
"388","12093901","Fulda Marianum","","50.552953","9.699806","2055","","0","","",""
"389","12093902","Fulda Marianum","","50.552155258","9.703092277","2055","","0","","",""
"390","12093903","Fulda Marianum","","50.553422","9.702525","2055","","0","","",""
"391","12093904","Fulda Marianum","","50.552971","9.699641","2055","","0","","",""
"392","12093905","Fulda Marianum","","50.551919","9.701695","2055","","0","","",""
"393","12205501","Fulda Mehlerstraße","","50.542590261","9.686819315","2001","","0","","",""
"394","12205502","Fulda Mehlerstraße","","50.542449","9.686705","2001","","0","","",""
"395","12200301","Fulda Monnetstraße","","50.5748","9.649215","2001","","0","","",""
"396","12200302","Fulda Monnetstraße","","50.574825","9.649337","2001","","0","","",""
"397","12203701","Fulda Ochsenwiese","","50.559048","9.685633","2001","","0","","",""
"398","12203702","Fulda Ochsenwiese","","50.558658","9.684903","2001","","0","","",""
"399","12046301","Fulda Osthessen-Center","","50.548962","9.68607","2001","","0","","",""
"400","12204202","Fulda Pappelweg","","50.556918","9.693328","2001","","0","","",""
"401","12220901","Fulda Paulustor","","50.55606","9.672792","2001","","0","","",""
"402","12220902","Fulda Paulustor","","50.556219624","9.672964364","2001","","0","","",""
"403","12203301","Fulda Platz der Weißen Rose","","50.561352","9.694558","2001","","0","","",""
"404","12203302","Fulda Platz der Weißen Rose","","50.561788","9.694723","2001","","0","","",""
"405","12203601","Fulda Pfaffenpfad","","50.557448","9.690995","2001","","0","","",""
"406","12203602","Fulda Pfaffenpfad","","50.557093","9.691303","2001","","0","","",""
"407","12212201","Fulda Pozzistraße","","50.577789","9.658569","2001","","0","","",""
"408","12212202","Fulda Pozzistraße","","50.577711","9.658708","2001","","0","","",""
"409","12206501","Fulda Peterstor","","50.55015916","9.681243002","2001","","0","","",""
"410","12206502","Fulda Peterstor","","50.549967428","9.68132481","2001","","0","","",""
"411","12233801","Fulda Rangstraße","","50.544078","9.678192","2001","","0","","",""
"412","12233802","Fulda Rangstraße","","50.544022","9.678127","2001","","0","","",""
"413","12231801","Fulda RhönEnergie","","50.546139013","9.674943835","2001","","0","","",""
"414","12211201","Fulda Regensburger Straße","","50.573688","9.669227","2001","","0","","",""
"415","12211202","Fulda Regensburger Straße","","50.572918","9.668813","2001","","0","","",""
"416","12211101","Fulda Rote Hohle","","50.569778608","9.665633887","2001","","0","","",""
"417","12211102","Fulda Rote Hohle","","50.56975","9.665688","2001","","0","","",""
"418","12200901","Fulda Robert-Kircher-Straße","","50.550581394","9.673573226","2001","","0","","",""
"419","12200902","Fulda Robert-Kircher-Straße","","50.550104197","9.67388168","2001","","0","","",""
"420","12221101","Fulda Ronsbachstraße","","50.53664","9.678762","2001","","0","","",""
"421","12221102","Fulda Ronsbachstraße","","50.536578","9.678673","2001","","0","","",""
"422","12211601","Fulda Schannatstraße","","50.569177","9.654322","2001","","0","","",""
"423","12211602","Fulda Schannatstraße","","50.569048","9.654527","2001","","0","","",""
"424","12207401","Fulda Schillerstraße","","50.549677","9.702093","2001","","0","","",""
"425","12233101","Fulda Schlitzer Straße","","50.567059201","9.653723538","2001","","0","","",""
"426","12233102","Fulda Schlitzer Straße","","50.567147792","9.653500915","2001","","0","","",""
"427","12209001","Fulda Schumannstraße","","50.546222","9.701142","2001","","0","","",""
"428","12209002","Fulda Schumannstraße","","50.546345","9.701162","2001","","0","","",""
"429","12209003","Fulda Schumannstraße","","50.546282185","9.699677825","2001","","0","","",""
"430","12209004","Fulda Schumannstraße","","50.54647308","9.700798988","2001","","0","","",""
"431","12201801","Fulda Stadion","","50.539932","9.663307","2001","","0","","",""
"432","12201802","Fulda Stadion","","50.539942","9.663178","2001","","0","","",""
"433","12236601","Fulda St. Johannes-Kirche","","50.552815635","9.711112082","2055","","0","","",""
"434","12236602","Fulda St. Johannes-Kirche","","50.552876986","9.711149633","2055","","0","","",""
"435","12200801","Fulda Stadtschloss","","50.553672407","9.676752985","2001","","0","","",""
"436","12200802","Fulda Stadtschloss","","50.553718419","9.676824063","2001","","0","","",""
"437","12200803","Fulda Stadtschloss","","50.553759319","9.676921964","2001","","0","","",""
"438","12200804","Fulda Stadtschloss","","50.553803627","9.6770145","2001","","0","","",""
"439","12200805","Fulda Stadtschloss","","50.55384623","9.677089602","2001","","0","","",""
"440","12200806","Fulda Stadtschloss","","50.553924621","9.677404761","2001","","0","","",""
"441","12200807","Fulda Stadtschloss","","50.553732904","9.677638113","2001","","0","","",""
"442","12200808","Fulda Stadtschloss","","50.553628951","9.677786976","2001","","0","","",""
"443","12200809","Fulda Stadtschloss","","50.553654939","9.677528143","2001","","0","","",""
"444","12200810","Fulda Stadtschloss","","50.553823224","9.677301496","2001","","0","","",""
"445","12200811","Fulda Stadtschloss","","50.553968077","9.677108377","2001","","0","","",""
"446","12200812","Fulda Stadtschloss","","50.55375591","9.677105695","2001","","0","","",""
"447","12208201","Fulda Sturmiusschule","","50.535503","9.681723","2001","","0","","",""
"448","12208202","Fulda Sturmiusschule","","50.535683","9.681605","2001","","0","","",""
"449","12201301","Fulda St.-Vinzenz-Straße","","50.557827","9.65935","2001","","0","","",""
"450","12201302","Fulda St.-Vinzenz-Straße","","50.557962","9.659295","2001","","0","","",""
"451","12213801","Fulda Schwarzmannstraße","","50.576105","9.657448","2001","","0","","",""
"452","12213802","Fulda Schwarzmannstraße","","50.576198","9.657475","2001","","0","","",""
"453","12201401","Fulda Theresienheim","","50.560437","9.647885","2001","","0","","",""
"454","12201402","Fulda Theresienheim","","50.560317","9.648505","2001","","0","","",""
"455","12007601","Fulda Tunnel Magdeburger Straße","","50.556360209","9.682230055","2001","","0","","",""
"456","12007602","Fulda Tunnel Magdeburger Straße","","50.55638151","9.682472795","2001","","0","","",""
"457","12204102","Fulda Ulmenweg","","50.560677","9.691092","2001","","0","","",""
"458","12220101","Fulda Universitätsplatz","","50.551735595","9.68018353","2001","","0","","",""
"459","12220102","Fulda Universitätsplatz","","50.551847221","9.680018574","2001","","0","","",""
"460","12017301","Fulda Waidesgrund","","50.557799264","9.698559344","2001","","0","","",""
"461","12017302","Fulda Waidesgrund","","50.557863164","9.698665291","2001","","0","","",""
"462","12205601","Fulda Wallweg","","50.540383","9.676327","2001","","0","","",""
"463","12205602","Fulda Wallweg","","50.539463","9.676267","2001","","0","","",""
"464","12092601","Fulda Washingtonallee","","50.554927","9.650082","2001","","0","","",""
"465","12092602","Fulda Washingtonallee","","50.554718","9.65058","2001","","0","","",""
"466","12207101","Fulda Walter-Bauer-Straße","","50.551279286","9.716892242","2001","","0","","",""
"467","12207102","Fulda Walter-Bauer-Straße","","50.551322","9.717142","2001","","0","","",""
"468","12235501","Fulda Weichselstraße","","50.539993","9.681905","2001","","0","","",""
"469","12235502","Fulda Weichselstraße","","50.540012","9.681855","2001","","0","","",""
"470","12217001","Fulda Weimarer Straße","","50.555945269","9.666694701","2001","","0","","",""
"471","12217002","Fulda Weimarer Straße","","50.556363617","9.666937441","2001","","0","","",""
"472","12018101","Fulda Weserstraße","","50.537977","9.67722","2001","","0","","",""
"473","12018102","Fulda Weserstraße","","50.538015","9.677073","2001","","0","","",""
"474","12205401","Fulda Weyherser Weg","","50.546002659","9.68323186","2001","","0","","",""
"475","12081601","Fulda Winfriedschule","","50.557160258","9.674730599","2001","","0","","",""
"476","12081602","Fulda Winfriedschule","","50.557134697","9.673984945","2001","","0","","",""
"477","12203201","Fulda Wirmerstraße","","50.563883","9.695108","2001","","0","","",""
"478","12203202","Fulda Wirmerstraße","","50.563917","9.695173","2001","","0","","",""
"479","12211801","Fulda Witzelstraße","","50.572312","9.65383","2001","","0","","",""
"480","12211802","Fulda Witzelstraße","","50.572773","9.654202","2001","","0","","",""
"481","12200501","Fulda Wörthstraße","","50.561152629","9.682637751","2001","","0","","",""
"482","12200502","Fulda Wörthstraße","","50.56113559","9.682736993","2001","","0","","",""
"483","12006201","Fulda Bahnhof / ZOB","","50.553680076","9.684096873","2001","","0","","",""
"484","12006202","Fulda Bahnhof / ZOB","","50.553680928","9.683804512","2001","","0","","",""
"485","12006203","Fulda Bahnhof / ZOB","","50.553562489","9.6842511","2001","","0","","",""
"486","12006204","Fulda Bahnhof / ZOB","","50.553563341","9.683950692","2001","","0","","",""
"487","12006205","Fulda Bahnhof / ZOB","","50.553415931","9.684438854","2001","","0","","",""
"488","12006206","Fulda Bahnhof / ZOB","","50.553440641","9.684107602","2001","","0","","",""
"489","12006207","Fulda Bahnhof / ZOB","","50.553301752","9.684581012","2001","","0","","",""
"490","12006208","Fulda Bahnhof / ZOB","","50.553288118","9.684289992","2001","","0","","",""
"491","12006209","Fulda Bahnhof / ZOB","","50.553198649","9.68471244","2001","","0","","",""
"492","12006210","Fulda Bahnhof / ZOB","","50.553170531","9.684452266","2001","","0","","",""
"493","12209201","Fulda Zentralfriedhof","","50.543532","9.697242","2001","","0","","",""
"494","12209202","Fulda Zentralfriedhof","","50.5438","9.696836","2001","","0","","",""
"495","12220001","Fulda Zieherser Weg","","50.55846","9.683093","2001","","0","","",""
"496","12232201","Fulda Überm Engelshaus","","50.541885","9.656402","2001","","0","","",""
"497","12232202","Fulda Überm Engelshaus","","50.541931872","9.6562998","2001","","0","","",""
"498","12096601","Finkenhain Birkenhof","","50.540927","9.83332","2070","","0","","",""
"499","12096602","Finkenhain Birkenhof","","50.541343","9.832927","2070","","0","","",""
"500","12026101","Finkenhain","","50.53283","9.838915","2070","","0","","",""
"501","12026102","Finkenhain","","50.532978","9.838083","2070","","0","","",""
"502","12226501","Findlos Ortsmitte","","50.551428","10.000575","1740","","0","","",""
"503","12226502","Findlos Ortsmitte","","50.55147","10.000623","1740","","0","","",""
"504","12038101","Flieden Adenmühle","","50.413403","9.566482","1925","","0","","",""
"505","12038102","Flieden Adenmühle","","50.412868","9.566532","1925","","0","","",""
"506","11105101","Flieden Bahnhof","","50.420888","9.57517","1925","","0","","",""
"507","12239201","Flieden Gewerbegebiet Flieden Süd","","50.407983","9.554217","1925","","0","","",""
"508","12239202","Flieden Gewerbegebiet Flieden Süd","","50.407737","9.553187","1925","","0","","",""
"509","12018401","Flieden Glockenweg","","50.418522","9.565262","1925","","0","","",""
"510","12018402","Flieden Glockenweg","","50.418623263","9.565354139","1925","","0","","",""
"511","12038601","Flieden Abzweig Kellerei","","50.432632","9.550122","1925","","0","","",""
"512","12038602","Flieden Abzweig Kellerei","","50.432552","9.549252","1925","","0","","",""
"513","12038501","Flieden Reinhardstraße","","50.424073","9.56573","1925","","0","","",""
"514","12038502","Flieden Reinhardstraße","","50.425097","9.563538","1925","","0","","",""
"515","12099701","Flieden Waldstrasse","","50.420727","9.556162","1925","","0","","",""
"516","12099702","Flieden Waldstrasse","","50.420738","9.556317","1925","","0","","",""
"517","12021201","Flieden Weinbergstraße","","50.427768","9.560675","1925","","0","","",""
"518","12021202","Flieden Weinbergstraße","","50.428457","9.560102","1925","","0","","",""
"519","12073901","Flieden Zentrum","","50.421246556","9.56738323","1925","","0","","",""
"520","12073902","Flieden Zentrum","","50.421262791","9.567731917","1925","","0","","",""
"521","12073903","Flieden Zentrum","","50.420914166","9.567648768","1925","","0","","",""
"522","12073904","Flieden Zentrum","","50.420800521","9.567892849","1925","","0","","",""
"523","12026501","Friesenhausen B 458","","50.52808","9.830798","2070","","0","","",""
"524","12026502","Friesenhausen B 458","","50.528203","9.828957","2070","","0","","",""
"525","12055401","Eiterfeld Fürsteneck","","50.776033","9.808883","1653","","0","","",""
"526","12238601","Gackenhof","","50.475503","9.875173","1801","","0","","",""
"527","12238602","Gackenhof","","50.47551","9.875334","1801","","0","","",""
"528","12096901","Geisa Busbahnhof","","50.717506","9.956989","1669","","0","","",""
"529","13041701","Geisa Kulturhaus","","50.716903897","9.953404739","1669","","0","","",""
"530","13041702","Geisa Kulturhaus","","50.716875027","9.953407422","1669","","0","","",""
"531","12097001","Geisa Point Alpha","","50.719412","9.928417","1669","","0","","",""
"532","13041801","Geisa Rasdorfer Berg","","50.718653908","9.945928082","1669","","0","","",""
"533","13041802","Geisa Rasdorfer Berg","","50.718632681","9.945898578","1669","","0","","",""
"534","12064901","Gersfeld Abzw. Maiersbach","","50.454762","9.896905","1847","","0","","",""
"535","11107201","Gersfeld Bahnhof","","50.4493","9.915603","1847","","0","","",""
"536","12041001","Schletzenhausen Gersrod","","50.526575","9.488312","2101","","0","","",""
"537","12041002","Schletzenhausen Gersrod","","50.526613","9.488445","2101","","0","","",""
"538","12055301","Giesenhain","","50.765415","9.740017","1618","","0","","",""
"539","12055302","Giesenhain","","50.765407","9.740047","1618","","0","","",""
"540","12035201","Giesel Raiffeisen","","50.504063","9.56661","1930","","0","","",""
"541","12035102","Giesel Sommerberg","","50.508737","9.571982","1930","","0","","",""
"542","12236301","Gläserzell Abt-Hadamar-Straße","","50.58087","9.646988","2001","","0","","",""
"543","12235601","Gläserzell Gerhart-Hauptmann-Straße","","50.573393","9.643907","2001","","0","","",""
"544","12236101","Gläserzell Lausitzer Straße","","50.576234","9.642393","2001","","0","","",""
"545","11119501","Großenlüder Bahnhof","","50.59199","9.549787","2109","","0","","",""
"546","12040101","Großenlüder Ortsmitte","","50.589855","9.540643","2109","","0","","",""
"547","12040102","Großenlüder Ortsmitte","","50.59005","9.540555","2109","","0","","",""
"548","12054601","Großenlüder Schule","","50.585869087","9.549003392","2109","","0","","",""
"549","12054602","Großenlüder Schule","","50.585959345","9.548606426","2109","","0","","",""
"550","12054603","Großenlüder Schule","","50.586110059","9.548476338","2109","","0","","",""
"551","12054604","Großenlüder Schule","","50.586262476","9.548350275","2109","","0","","",""
"552","12221301","Gotthards Kermes","","50.620637","9.893225","1640","","0","","",""
"553","12221302","Gotthards Kermes","","50.62068","9.89339","1640","","0","","",""
"554","12045701","Gotthards","","50.622337","9.901362","1640","","0","","",""
"555","12045702","Gotthards","","50.62202","9.90145","1640","","0","","",""
"556","12010401","Großenmoor","","50.702363","9.652708","1613","","0","","",""
"557","12010402","Großenmoor","","50.702433","9.652408","1613","","0","","",""
"558","12221601","Großenbach Kirche","","50.686085","9.80138","1645","","0","","",""
"559","12095301","Großenbach Linkbergstraße","","50.684993","9.801178","1645","","0","","",""
"560","12095302","Großenbach Linkbergstraße","","50.685302","9.800655","1645","","0","","",""
"561","12220501","Großenbach Ortseingang","","50.6833","9.795877","1645","","0","","",""
"562","12220502","Großenbach Ortseingang","","50.682095","9.792087","1645","","0","","",""
"563","12011301","Großentaft Ortsmitte","","50.741653","9.858427","1658","","0","","",""
"564","12011302","Großentaft Ortsmitte","","50.741418","9.858235","1658","","0","","",""
"565","12053801","Großentaft Hauptstraße","","50.742558","9.864232","1658","","0","","",""
"566","12009701","Gruben","","50.694503","9.749853","1650","","0","","",""
"567","12009702","Gruben","","50.695088","9.750212","1650","","0","","",""
"568","12230801","Grüsselbach Felsenkeller","","50.736552","9.923062","1630","","0","","",""
"569","12230802","Grüsselbach Felsenkeller","","50.736327","9.922928","1630","","0","","",""
"570","12230901","Grüsselbach Ortsmitte","","50.740682","9.920485","1630","","0","","",""
"571","12094301","Götzenhof Milseburgradweg","","50.577705","9.718058","2065","","0","","",""
"572","12014601","Götzenhof","","50.579327","9.716585","2065","","0","","",""
"573","12014602","Götzenhof","","50.579818","9.717195","2065","","0","","",""
"574","12227901","Günthers DGH","","50.658397","9.992048","1710","","0","","",""
"575","12227902","Günthers DGH","","50.658458","9.992277","1710","","0","","",""
"576","12090203","Günthers Wartburgstraße","","50.659605","9.995943","1710","","0","","",""
"577","12090204","Günthers Wartburgstraße","","50.659602","9.995753","1710","","0","","",""
"578","12016301","Höf und Haid Dirlosborn","","50.408845","9.518128","1925","","0","","",""
"579","12016302","Höf und Haid Dirlosborn","","50.409083","9.517852","1925","","0","","",""
"580","12068501","Höf und Haid Fuldaische Höfe","","50.39181","9.539138","1925","","0","","",""
"581","12039201","Höf und Haid Haid","","50.410513","9.512645","1925","","0","","",""
"582","12039202","Höf und Haid Haid","","50.410413","9.512667","1925","","0","","",""
"583","12039601","Höf und Haid Kautz","","50.401782","9.546115","1925","","0","","",""
"584","12039602","Höf und Haid Kautz","","50.401413","9.545772","1925","","0","","",""
"585","12039101","Höf und Haid Laugendorf","","50.403615","9.528237","1925","","0","","",""
"586","12039102","Höf und Haid Laugendorf","","50.403658","9.528277","1925","","0","","",""
"587","12228701","Habel Habelgraben Abzweig","","50.627433","9.987992","1710","","0","","",""
"588","12228702","Habel Habelgraben Abzweig","","50.627407","9.98803","1710","","0","","",""
"589","12228601","Habel","","50.635292","9.97595","1710","","0","","",""
"590","12228602","Habel","","50.635213","9.975872","1710","","0","","",""
"591","12019801","Haimbach Sonnenstraße","","50.548802","9.632382","2001","","0","","",""
"592","12019802","Haimbach Sonnenstraße","","50.548867","9.632475","2001","","0","","",""
"593","12046901","Haimbach Kirche","","50.547257","9.626348","2001","","0","","",""
"594","12046902","Haimbach Kirche","","50.547238","9.626125","2001","","0","","",""
"595","12202801","Haimbach Rehweg","","50.548187","9.626268","2001","","0","","",""
"596","12230102","Haimbach Schule","","50.546742","9.625622","2001","","0","","",""
"597","12236401","Haimbach Sportplatz","","50.548795","9.622135","2001","","0","","",""
"598","12236402","Haimbach Sportplatz","","50.548708","9.622358","2001","","0","","",""
"599","12225701","Harbach","","50.570273","9.92328","1728","","0","","",""
"600","12225702","Harbach","","50.570418","9.923403","1728","","0","","",""
"601","12018601","Harmerz Grenadierstraße","","50.515458","9.651058","2001","","0","","",""
"602","12018602","Harmerz Grenadierstraße","","50.515658","9.651175","2001","","0","","",""
"603","12047101","Harmerz Hellersgrundstraße","","50.513907","9.652077","2001","","0","","",""
"604","12047102","Harmerz Hellersgrundstraße","","50.513857","9.652205","2001","","0","","",""
"605","12234001","Harmerz Husarenweg","","50.518842","9.656898","2001","","0","","",""
"606","12234002","Harmerz Husarenweg","","50.51896","9.657103","2001","","0","","",""
"607","12090001","Harmerz Pionierstraße","","50.520485","9.654617","2001","","0","","",""
"608","12090002","Harmerz Pionierstraße","","50.52042","9.654858","2001","","0","","",""
"609","12018501","Harmerz Ulanenstraße","","50.516175","9.653055","2001","","0","","",""
"610","12018502","Harmerz Ulanenstraße","","50.515973","9.652885","2001","","0","","",""
"611","12097901","Haselstein Großenbacher Straße","","50.68158","9.853412","1639","","0","","",""
"612","12097902","Haselstein Großenbacher Straße","","50.681457","9.853373","1639","","0","","",""
"613","12073601","Hattenhof Büchenberger Straße","","50.463772","9.677118","1950","","0","","",""
"614","12073602","Hattenhof Büchenberger Straße","","50.463693","9.67712","1950","","0","","",""
"615","12073501","Hattenhof Bürgerhaus","","50.46909","9.673685","1950","","0","","",""
"616","12073502","Hattenhof Bürgerhaus","","50.468578","9.673852","1950","","0","","",""
"617","12064101","Hattenhof Nußbach Kreuz","","50.46293","9.668722","1950","","0","","",""
"618","12064102","Hattenhof Nußbach Kreuz","","50.462852","9.668543","1950","","0","","",""
"619","12096301","Hattenhof Schule","","50.466155","9.677612","1950","","0","","",""
"620","12096302","Hattenhof Schule","","50.466078","9.677485","1950","","0","","",""
"621","12064001","Hattenhof Ziegelrain","","50.463887","9.675107","1950","","0","","",""
"622","12064002","Hattenhof Ziegelrain","","50.46411","9.675107","1950","","0","","",""
"623","12093601","Hauswurz Brandloser Straße","","50.464703","9.475895","1942","","0","","",""
"624","12093602","Hauswurz Brandloser Straße","","50.464768","9.475943","1942","","0","","",""
"625","12724201","Hauswurz Forsthaus","","50.461692","9.48836","1942","","0","","",""
"626","12724202","Hauswurz Forsthaus","","50.46171","9.488457","1942","","0","","",""
"627","12724301","Hauswurz Taufsteinstraße","","50.462073","9.4773","1942","","0","","",""
"628","12010101","Hechelmannskirchen","","50.706947","9.642278","1613","","0","","",""
"629","12010102","Hechelmannskirchen","","50.707087","9.641987","1613","","0","","",""
"630","12226901","Herdathurm","","50.622178","10.024857","1710","","0","","",""
"631","12226902","Herdathurm","","50.622218","10.02479","1710","","0","","",""
"632","12047201","Heubach Rathaus","","50.384193","9.718262","1935","","0","","",""
"633","12047202","Heubach Rathaus","","50.384232","9.718518","1935","","0","","",""
"634","12084801","Heubach Sägewerk","","50.382685","9.711708","1935","","0","","",""
"635","12084802","Heubach Sägewerk","","50.382953","9.711928","1935","","0","","",""
"636","12045501","Hilders Feriengebiet","","50.576205","10.015477","1740","","0","","",""
"637","12045502","Hilders Feriengebiet","","50.576532","10.015378","1740","","0","","",""
"638","12225001","Hilders Konrad-Zuse-Schule","","50.574167","10.000895","1740","","0","","",""
"639","12027201","Hilders Marktstraße","","50.571927","10.00163","1740","","0","","",""
"640","12027202","Hilders Marktstraße","","50.571928","10.002385","1740","","0","","",""
"641","12094001","Hilders Milseburgradweg","","50.571047","9.997407","1740","","0","","",""
"642","12225901","Hilders MPS","","50.577093","9.997077","1740","","0","","",""
"643","12225902","Hilders MPS","","50.576968","9.997123","1740","","0","","",""
"644","12225903","Hilders MPS","","50.576813","9.99712","1740","","0","","",""
"645","12225904","Hilders MPS","","50.576758","9.997142","1740","","0","","",""
"646","12225906","Hilders MPS","","50.575303","9.998173","1740","","0","","",""
"647","10809401","Hilders ZOB","","50.570323748","10.001607388","1740","","0","","",""
"648","12040701","Hainzell Brücke","","50.543019807","9.490787387","2101","","0","","",""
"649","12040702","Hainzell Brücke","","50.542957592","9.490862489","2101","","0","","",""
"650","12056001","Hainzell Ortsmitte","","50.539927","9.492025","2101","","0","","",""
"651","12056002","Hainzell Ortsmitte","","50.54001","9.492297","2101","","0","","",""
"652","12229601","Hofaschenbach Ortsmitte","","50.637497","9.846212","1648","","0","","",""
"653","12229602","Hofaschenbach Ortsmitte","","50.637517","9.846207","1648","","0","","",""
"654","12022001","Hofbieber Egelmeser Straße","","50.589662","9.837712","2083","","0","","",""
"655","12022002","Hofbieber Egelmeser Straße","","50.589862","9.83773","2083","","0","","",""
"656","12095201","Hofaschenbach Hünfelder Straße","","50.636807","9.843307","1648","","0","","",""
"657","12095202","Hofaschenbach Hünfelder Straße","","50.636923","9.843007","1648","","0","","",""
"658","12238401","Hofbieber Langenbieberer Straße","","50.583368","9.838675","2083","","0","","",""
"659","12238402","Hofbieber Langenbieberer Straße","","50.583445","9.838662","2083","","0","","",""
"660","12023301","Hofbieber Ortsmitte","","50.586363","9.837203","2083","","0","","",""
"661","12023302","Hofbieber Ortsmitte","","50.5868","9.837547","2083","","0","","",""
"662","12088001","Hofaschenbach Rathaus","","50.633407","9.846688","1648","","0","","",""
"663","12088002","Hofaschenbach Rathaus","","50.633237","9.846588","1648","","0","","",""
"664","12022101","Hofbieber Weihershof","","50.586418","9.856715","2083","","0","","",""
"665","12022102","Hofbieber Weihershof","","50.587823","9.859323","2083","","0","","",""
"666","12055201","Hosenfeld Lindenstraße","","50.502025","9.477338","2127","","0","","",""
"667","12055202","Hosenfeld Lindenstraße","","50.502025","9.477298","2127","","0","","",""
"668","12041201","Hosenfeld Ortsmitte","","50.50568","9.478882","2127","","0","","",""
"669","12041202","Hosenfeld Ortsmitte","","50.50553","9.478847","2127","","0","","",""
"670","12056101","Hosenfeld Schule","","50.505828","9.475113","2127","","0","","",""
"671","12041601","Hosenfeld Schwimmbad","","50.512702","9.477852","2127","","0","","",""
"672","12041602","Hosenfeld Schwimmbad","","50.51268","9.477783","2127","","0","","",""
"673","12226802","Hundsbach","","50.622522","10.040065","1710","","0","","",""
"674","12013701","Hünfeld Arbeitsamt","","50.667878","9.762547","1645","","0","","",""
"675","12013702","Hünfeld Arbeitsamt","","50.66793","9.762542","1645","","0","","",""
"676","11104801","Hünfeld Bahnhof","","50.672247","9.763578","1645","","0","","",""
"677","11104802","Hünfeld Bahnhof","","50.672483","9.763522","1645","","0","","",""
"678","11104803","Hünfeld Bahnhof","","50.67265","9.763483","1645","","0","","",""
"679","11104804","Hünfeld Bahnhof","","50.672442","9.763617","1645","","0","","",""
"680","11104805","Hünfeld Bahnhof","","50.672067","9.763617","1645","","0","","",""
"681","12099401","Hünfeld Freizeitanlage Tiergarten","","50.664002","9.774295","1645","","0","","",""
"682","12099402","Hünfeld Freizeitanlage Tiergarten","","50.664187","9.774623","1645","","0","","",""
"683","12229001","Hünfeld Hallenbad","","50.672717","9.769437","1645","","0","","",""
"684","12229002","Hünfeld Hallenbad","","50.672693","9.769427","1645","","0","","",""
"685","12009601","Hünhan","","50.69071","9.73358","1650","","0","","",""
"686","12009602","Hünhan","","50.690588","9.733783","1650","","0","","",""
"687","12099501","Hünfeld Heliosklinik","","50.664167","9.766733","1645","","0","","",""
"688","12099502","Hünfeld Heliosklinik","","50.664125","9.766838","1645","","0","","",""
"689","12095001","Hünfeld Industriegebiet","","50.686145","9.75643","1645","","0","","",""
"690","12095002","Hünfeld Industriegebiet","","50.68625","9.756415","1645","","0","","",""
"691","12220601","Hünfeld J.A.F.-Schule","","50.678285","9.764963","1645","","0","","",""
"692","12098001","Hünfeld Molzbacher Berg","","50.669278","9.784705","1645","","0","","",""
"693","12098002","Hünfeld Molzbacher Berg","","50.669327","9.783452","1645","","0","","",""
"694","12013801","Hünfeld Nordend","","50.680053","9.762148","1645","","0","","",""
"695","12013802","Hünfeld Nordend","","50.679995","9.762228","1645","","0","","",""
"696","12014009","Hünfeld Schulzentrum","","50.668288","9.77008","1645","","0","","",""
"697","12014301","Hünfeld Rasdorfer Straße","","50.680245","9.771922","1645","","0","","",""
"698","12014302","Hünfeld Rasdorfer Straße","","50.680042","9.770983","1645","","0","","",""
"699","12014000","Hünfeld Schulzentrum","","50.66751","9.770057","1645","","0","","",""
"700","12014001","Hünfeld Schulzentrum","","50.667195","9.770037","1645","","0","","",""
"701","12014002","Hünfeld Schulzentrum","","50.666972","9.77006","1645","","0","","",""
"702","12014003","Hünfeld Schulzentrum","","50.666838","9.77014","1645","","0","","",""
"703","12014004","Hünfeld Schulzentrum","","50.666718","9.76994","1645","","0","","",""
"704","12014005","Hünfeld Schulzentrum","","50.666517","9.769897","1645","","0","","",""
"705","12014006","Hünfeld Schulzentrum","","50.666345","9.769835","1645","","0","","",""
"706","12014007","Hünfeld Schulzentrum","","50.666153","9.769818","1645","","0","","",""
"707","12014008","Hünfeld Schulzentrum","","50.666083","9.769832","1645","","0","","",""
"708","12019201","Istergiesel","","50.516238","9.607435","2001","","0","","",""
"709","12092301","Johannesberg Am Zirkenbacher Kreuz","","50.520535","9.651182","2001","","0","","",""
"710","12092302","Johannesberg Am Zirkenbacher Kreuz","","50.52055","9.651262","2001","","0","","",""
"711","12080501","Johannesberg Lagerfeld","","50.524602","9.659872","2001","","0","","",""
"712","12080502","Johannesberg Lagerfeld","","50.524645","9.659783","2001","","0","","",""
"713","12080601","Johannesberg Propstei","","50.523423","9.660687","2001","","0","","",""
"714","12080602","Johannesberg Propstei","","50.523543","9.660502","2001","","0","","",""
"715","12233001","Johannesberg Vereinszentrum","","50.52173","9.656108","2001","","0","","",""
"716","12041901","Jossa","","50.48965","9.451447","2128","","0","","",""
"717","12041902","Jossa","","50.490362","9.451948","2128","","0","","",""
"718","12041701","Jossa Schlingenmühle","","50.496775","9.46044","2128","","0","","",""
"719","12041702","Jossa Schlingenmühle","","50.496857","9.460745","2128","","0","","",""
"720","12724402","Kauppen","","50.455473","9.490372","1942","","0","","",""
"721","12047301","Kerzell Ortsmitte","","50.48642","9.670103","1818","","0","","",""
"722","12047302","Kerzell Ortsmitte","","50.486438","9.669705","1818","","0","","",""
"723","12024701","Keulos Haunestraße","","50.540558","9.74211","2045","","0","","",""
"724","12024702","Keulos Haunestraße","","50.540283","9.742142","2045","","0","","",""
"725","12024901","Keulos Am Noppen","","50.542507","9.73551","2045","","0","","",""
"726","12024902","Keulos Am Noppen","","50.542543","9.735627","2045","","0","","",""
"727","12228501","Kleinfischbach","","50.624843","10.073763","1710","","0","","",""
"728","12098101","Kirchhasel Dorfplatz","","50.701157","9.800917","1645","","0","","",""
"729","12230201","Kirchhasel Georgstraße","","50.699972","9.802543","1645","","0","","",""
"730","12230202","Kirchhasel Georgstraße","","50.700213","9.803115","1645","","0","","",""
"731","12230401","Kirchhasel Neuwirtshaus","","50.699172","9.815558","1645","","0","","",""
"732","12230402","Kirchhasel Neuwirtshaus","","50.69922","9.815407","1645","","0","","",""
"733","12094201","Kleinsassen Kunststation","","50.554068","9.875845","1701","","0","","",""
"734","12094202","Kleinsassen Kunststation","","50.554045","9.875912","1701","","0","","",""
"735","12022801","Kleinsassen Rhönringstraße","","50.551502","9.874023","1701","","0","","",""
"736","12022802","Kleinsassen Rhönringstraße","","50.55147","9.874027","1701","","0","","",""
"737","12093301","Kleinlüder Karlstraße","","50.545615","9.517962","2122","","0","","",""
"738","12093302","Kleinlüder Karlstraße","","50.545492","9.51817","2122","","0","","",""
"739","12095701","Kleinlüder Kirche","","50.548968","9.515498","2122","","0","","",""
"740","12039801","Kleinlüder Mühlenstraße","","50.54773","9.51612","2122","","0","","",""
"741","12039802","Kleinlüder Mühlenstraße","","50.548123","9.515992","2122","","0","","",""
"742","12208801","Fulda Kohlhaus Ortesweg","","50.528533","9.67932","2001","","0","","",""
"743","12208802","Fulda Kohlhaus Ortesweg","","50.528595","9.679333","2001","","0","","",""
"744","12012401","Körnbach Dittlofroder Straße","","50.754967","9.765757","1653","","0","","",""
"745","12012402","Körnbach Dittlofroder Straße","","50.754925","9.765865","1653","","0","","",""
"746","12221701","Künzell Sieben Welten","","50.538618","9.72249","2030","","0","","",""
"747","12048401","Künzell Abzweig Pilgerzell","","50.528922","9.731082","2030","","0","","",""
"748","12048402","Künzell Abzweig Pilgerzell","","50.529035","9.730517","2030","","0","","",""
"749","12224201","Künzell Brandenburger Straße","","50.551626524","9.725769013","2001","","0","","",""
"750","12224202","Künzell Brandenburger Straße","","50.551627","9.725768","2001","","0","","",""
"751","12025101","Künzell Dicker Turm","","50.532743","9.722163","2030","","0","","",""
"752","12025102","Künzell Dicker Turm","","50.532658","9.722228","2030","","0","","",""
"753","12028301","Künzell Dirloser Str","","50.533943","9.722546","2030","","0","","",""
"754","12221501","Künzell Eisenacher Straße","","50.537777","9.71416","2030","","0","","",""
"755","12206901","Künzell Fuldaer Straße","","50.54423","9.711398","2030","","0","","",""
"756","12206902","Künzell Fuldaer Straße","","50.544547","9.71132","2030","","0","","",""
"757","12208901","Künzell Gemeindezentrum","","50.540115","9.712357","2030","","0","","",""
"758","12208902","Künzell Gemeindezentrum","","50.54003","9.712048","2030","","0","","",""
"759","12206801","Künzell Grezzbachstraße","","50.544153","9.715708","2030","","0","","",""
"760","12206802","Künzell Grezzbachstraße","","50.544123","9.715798","2030","","0","","",""
"761","12222001","Künzell Harbacher Weg","","50.543032","9.720252","2030","","0","","",""
"762","12207002","Künzell Justus-Liebig-Center","","50.552273","9.720795","2001","","0","","",""
"763","12221201","Künzell Kastanienweg","","50.54268316","9.7284244","2030","","0","","",""
"764","12221202","Künzell Kastanienweg","","50.54252975","9.728287607","2030","","0","","",""
"765","12206701","Künzell Keuloser Straße","","50.544578","9.722283","2030","","0","","",""
"766","12206702","Künzell Keuloser Straße","","50.544572","9.722347","2030","","0","","",""
"767","12015901","Künzell Lanneshof","","50.553343","9.737788","2078","","0","","",""
"768","12015902","Künzell Lanneshof","","50.55321","9.737898","2078","","0","","",""
"769","12221401","Lahrbach Eisenacher Straße","","50.622348","10.004752","1710","","0","","",""
"770","12221402","Lahrbach Eisenacher Straße","","50.622437","10.004943","1710","","0","","",""
"771","12023801","Lahrbach Lindenplatz","","50.621225","10.003208","1710","","0","","",""
"772","12200201","Lehnerz Burgweg","","50.571580102","9.699433744","2001","","0","","",""
"773","12200202","Lehnerz Burgweg","","50.571316909","9.699213803","2001","","0","","",""
"774","12200701","Lehnerz EDAG","","50.575157","9.70574","2001","","0","","",""
"775","12200702","Lehnerz EDAG","","50.575182","9.705802","2001","","0","","",""
"776","12030301","Lehnerz Gewerbegebiet","","50.574785","9.69088","2001","","0","","",""
"777","12016501","Lehnerz An der Grillenburg","","50.57389","9.70136","2001","","0","","",""
"778","12016502","Lehnerz An der Grillenburg","","50.574353","9.701755","2001","","0","","",""
"779","12028701","Lehnerz Marie-Curie-Straße","","50.572753","9.690071","2001","","0","","",""
"780","12200101","Lehnerz Steinauer Straße","","50.573608","9.7027","2001","","0","","",""
"781","12200102","Lehnerz Steinauer Straße","","50.573837","9.703003","2001","","0","","",""
"782","12012501","Leimbach Betzenroder Straße","","50.749208","9.789772","1653","","0","","",""
"783","12012502","Leimbach Betzenroder Straße","","50.749055","9.789823","1653","","0","","",""
"784","12011201","Leibolz","","50.753417","9.822283","1653","","0","","",""
"785","12011202","Leibolz","","50.753283","9.822297","1653","","0","","",""
"786","12097601","Leimbach Malgeser Straße","","50.747848","9.790102","1653","","0","","",""
"787","12097602","Leimbach Malgeser Straße","","50.74776","9.790037","1653","","0","","",""
"788","12095501","Leibolz Mittelstraße","","50.751135","9.82068","1653","","0","","",""
"789","12095502","Leibolz Mittelstraße","","50.751172","9.820777","1653","","0","","",""
"790","12023501","Langenbieber Bieberstein","","50.572672","9.859827","2083","","0","","",""
"791","12023502","Langenbieber Bieberstein","","50.572533","9.859927","2083","","0","","",""
"792","12238301","Langenbieber Hofbieberer Straße","","50.574113","9.837125","2083","","0","","",""
"793","12238302","Langenbieber Hofbieberer Straße","","50.574193","9.837127","2083","","0","","",""
"794","12023401","Langenbieber Ortsmitte","","50.573327","9.833877","2083","","0","","",""
"795","12023402","Langenbieber Ortsmitte","","50.573348","9.833855","2083","","0","","",""
"796","12090601","Langenbieber Wadbergstraße","","50.569693","9.831455","2083","","0","","",""
"797","12090602","Langenbieber Wadbergstraße","","50.569775","9.83151","2083","","0","","",""
"798","12028201","Liebhards","","50.56671","9.949172","1740","","0","","",""
"799","12028203","Liebhards","","50.566302","9.94927","1740","","0","","",""
"800","12239101","Liebhards Am Felsenkeller","","50.566987","9.94836","1740","","0","","",""
"801","12239102","Liebhards Am Felsenkeller","","50.566975","9.948472","1740","","0","","",""
"802","12225401","Liebhards Steinbach","","50.557368","9.920265","1740","","0","","",""
"803","12225402","Liebhards Steinbach","","50.557347","9.92026","1740","","0","","",""
"804","12010001","Langenschwarz Hauptstraße","","50.719367","9.632898","1613","","0","","",""
"805","12093501","Löschenrod Ortsmitte","","50.497633","9.678845","1802","","0","","",""
"806","12056201","Lütterz","","50.594828","9.595661","2109","","0","","",""
"807","12056202","Lütterz","","50.594908","9.595717","2109","","0","","",""
"808","12216601","Maberzell Am Berg","","50.565921","9.624715","2001","","0","","",""
"809","12229701","Mittelaschenbach Bachstraße","","50.646037","9.860175","1648","","0","","",""
"810","12098901","Mittelaschenbach Haselsteiner Straße","","50.645278","9.857848","1648","","0","","",""
"811","12098902","Mittelaschenbach Haselsteiner Straße","","50.644957","9.857362","1648","","0","","",""
"812","12201501","Maberzell Am Karlshof","","50.564397","9.63726","2001","","0","","",""
"813","12201502","Maberzell Am Karlshof","","50.564565","9.636705","2001","","0","","",""
"814","12201601","Maberzell Nikolaus-Seng-Straße","","50.563332","9.630727","2001","","0","","",""
"815","12201602","Maberzell Nikolaus-Seng-Straße","","50.562513","9.631113","2001","","0","","",""
"816","12202501","Maberzell Zum Schulzenberg","","50.560378","9.633863","2001","","0","","",""
"817","12202502","Maberzell Zum Schulzenberg","","50.560537","9.633188","2001","","0","","",""
"818","12234901","Maberzell Am Schlüsselacker","","50.558638","9.636087","2001","","0","","",""
"819","12234902","Maberzell Am Schlüsselacker","","50.558508","9.636145","2001","","0","","",""
"820","12214501","Maberzell Am Trätzberg","","50.583348","9.627733","2001","","0","","",""
"821","12214401","Maberzell Am Weiher","","50.58109","9.62435","2001","","0","","",""
"822","12214402","Maberzell Am Weiher","","50.580942","9.624243","2001","","0","","",""
"823","12099301","Mackenzell Hünfelder Straße","","50.661127","9.786067","1645","","0","","",""
"824","12099302","Mackenzell Hünfelder Straße","","50.660888","9.786357","1645","","0","","",""
"825","12229201","Mackenzell Schule","","50.656902","9.789172","1645","","0","","",""
"826","12229202","Mackenzell Schule","","50.657015","9.789132","1645","","0","","",""
"827","12015401","Margretenhaun Backhaus","","50.56561","9.76034","2035","","0","","",""
"828","12015402","Margretenhaun Backhaus","","50.56552","9.759793","2035","","0","","",""
"829","12068201","Magdlos Berishof","","50.427822","9.536337","1925","","0","","",""
"830","12068202","Magdlos Berishof","","50.427707","9.536338","1925","","0","","",""
"831","12039001","Magdlos","","50.425875","9.514283","1925","","0","","",""
"832","12038901","Magdlos Federwisch","","50.426225","9.524347","1925","","0","","",""
"833","12038902","Magdlos Federwisch","","50.426282","9.524215","1925","","0","","",""
"834","12015601","Margretenhaun Am Zillbach","","50.565595","9.767877","2035","","0","","",""
"835","12015602","Margretenhaun Am Zillbach","","50.565743","9.768565","2035","","0","","",""
"836","12237701","Maiersbach","","50.465087","9.902912","1847","","0","","",""
"837","12237901","Maiersbach Rhönakademie","","50.470495","9.877952","1847","","0","","",""
"838","12238201","Maiersbach Wachtküppel","","50.467652","9.889177","1847","","0","","",""
"839","12012601","Malges","","50.731133","9.801005","1629","","0","","",""
"840","12012602","Malges","","50.730218","9.802312","1629","","0","","",""
"841","12012603","Malges","","50.72962","9.801092","1629","","0","","",""
"842","12020301","Malkes","","50.557233","9.581905","2001","","0","","",""
"843","12053501","Marbach Bachstraße","","50.618575","9.718505","2065","","0","","",""
"844","12234601","Marbach Damian-Schmitt-Straße","","50.618752","9.724198","2065","","0","","",""
"845","12098301","Marbach Im Eichsfeld","","50.61454","9.71775","2065","","0","","",""
"846","12014401","Marbach Kiliansplatz","","50.620468","9.720908","2065","","0","","",""
"847","12053601","Marbach Tromliedeweg","","50.621958","9.724435","2065","","0","","",""
"848","12226201","Melperts Kreuzbergstraße","","50.513292","10.016867","1747","","0","","",""
"849","12226202","Melperts Kreuzbergstraße","","50.512603","10.016375","1747","","0","","",""
"850","12222501","Melperts Ortsmitte","","50.51298","10.012103","1747","","0","","",""
"851","12045601","Melzdorf","","50.57878","9.750497","2035","","0","","",""
"852","12073301","Mengers","","50.795423","9.785922","1663","","0","","",""
"853","12063501","Michelsrombach Königsküppel","","50.659403","9.673672","1601","","0","","",""
"854","12012801","Michelsrombach Ortsmitte","","50.662513","9.660788","1601","","0","","",""
"855","12014201","Michelsrombach Schule","","50.6602","9.664897","1601","","0","","",""
"856","12225601","Milseburg Haltepunkt","","50.559375","9.906955","1728","","0","","",""
"857","12225602","Milseburg Haltepunkt","","50.559387","9.906925","1728","","0","","",""
"858","12019901","Mittelrode","","50.540465","9.607293","2001","","0","","",""
"859","12019902","Mittelrode","","50.540567","9.607443","2001","","0","","",""
"860","12067701","Mittelkalbach Bucheller","","50.400502","9.625217","1901","","0","","",""
"861","12067601","Mittelkalbach Grashof","","50.405447","9.62598","1901","","0","","",""
"862","10810201","Mittelkalbach Hofwiese","","50.427085","9.63946","1901","","0","","",""
"863","10810202","Mittelkalbach Hofwiese","","50.42672","9.639017","1901","","0","","",""
"864","12036301","Mittelkalbach Sebastianstraße","","50.419997","9.647125","1901","","0","","",""
"865","10811401","Mittelkalbach Veitsteinbacher Straße","","50.423258","9.641038","1901","","0","","",""
"866","12067501","Mittelkalbach Gemeindeverwaltung","","50.423782","9.641273","1901","","0","","",""
"867","12024501","Mollartshof","","50.624227","9.998833","1710","","0","","",""
"868","12024502","Mollartshof","","50.624253","9.999028","1710","","0","","",""
"869","12229101","Molzbach Ortsmitte","","50.666557","9.800952","1645","","0","","",""
"870","12229102","Molzbach Ortsmitte","","50.666516","9.800915","1645","","0","","",""
"871","12097801","Morles Hauptstraße","","50.629555","9.849955","1648","","0","","",""
"872","12097802","Morles Hauptstraße","","50.629435","9.850237","1648","","0","","",""
"873","12088101","Morles Ortsmitte","","50.629103","9.848245","1648","","0","","",""
"874","12088102","Morles Ortsmitte","","50.62811","9.847775","1648","","0","","",""
"875","12237801","Mosbach","","50.444353","9.94789","1847","","0","","",""
"876","12225201","Mittelrupsroth","","50.546623","9.93503","1728","","0","","",""
"877","12225202","Mittelrupsroth","","50.54663","9.935","1728","","0","","",""
"878","12040601","Müs Eichenauer Straße","","50.594985","9.504853","2109","","0","","",""
"879","12040602","Müs Eichenauer Straße","","50.594928","9.504852","2109","","0","","",""
"880","12040501","Müs Ortsmitte","","50.59096","9.504348","2109","","0","","",""
"881","12040502","Müs Ortsmitte","","50.591018","9.504415","2109","","0","","",""
"882","12092001","Neustädtges","","50.621257","9.992972","1710","","0","","",""
"883","12092002","Neustädtges","","50.621513","9.993373","1710","","0","","",""
"884","12227801","Neuswarts","","50.659328","9.970973","1710","","0","","",""
"885","12065701","Neuhof Alte Heerstraße","","50.461408","9.618697","1920","","0","","",""
"886","12065702","Neuhof Alte Heerstraße","","50.461447","9.618703","1920","","0","","",""
"887","12065901","Neuhof Albert-Schweitzer-Schule","","50.44906","9.611722","1920","","0","","",""
"888","11105001","Neuhof Bahnhof","","50.452404764","9.619725198","1920","","0","","",""
"889","11105009","Neuhof Bahnhof","","50.452404764","9.619725198","1920","","0","","",""
"890","12064201","Neuhof Engelsburg","","50.458058","9.62962","1920","","0","","",""
"891","12064202","Neuhof Engelsburg","","50.458041","9.629739","1920","","0","","",""
"892","12035001","Neuhof Erlenhöfe","","50.432112","9.612493","1920","","0","","",""
"893","12035002","Neuhof Erlenhöfe","","50.432193","9.612808","1920","","0","","",""
"894","12065801","Neuhof Gieseler Straße","","50.458655","9.610562","1920","","0","","",""
"895","12065802","Neuhof Gieseler Straße","","50.458543","9.610505","1920","","0","","",""
"896","12055101","Neuhof Lindenweg","","50.458682","9.616905","1920","","0","","",""
"897","12055102","Neuhof Lindenweg","","50.45784","9.616137","1920","","0","","",""
"898","12034701","Neuhof Opperz","","50.449368","9.619202","1920","","0","","",""
"899","12034702","Neuhof Opperz","","50.449613","9.619498","1920","","0","","",""
"900","12034801","Neuhof Rettungszentrum","","50.444935","9.626112","1946","","0","","",""
"901","12034802","Neuhof Rettungszentrum","","50.444873","9.62628","1946","","0","","",""
"902","12091601","Neuhof Rommerzer Straße","","50.454027","9.610295","1920","","0","","",""
"903","12091602","Neuhof Rommerzer Straße","","50.454795","9.612323","1920","","0","","",""
"904","12066101","Neuhof Schlossschule","","50.453325","9.616487","1920","","0","","",""
"905","12091501","Neuhof Wiesenweg","","50.454862","9.60352","1920","","0","","",""
"906","12091502","Neuhof Wiesenweg","","50.454822","9.603757","1920","","0","","",""
"907","12034401","Neuhof Zollweg","","50.452895","9.61614","1920","","0","","",""
"908","12034402","Neuhof Zollweg","","50.454007","9.61448","1920","","0","","",""
"909","12034901","Neuhof J.-Kep.-Schule","","50.446772915","9.630783945","1946","","0","","",""
"910","12034902","Neuhof J.-Kep.-Schule","","50.446809637","9.630423188","1946","","0","","",""
"911","12034903","Neuhof J.-Kep.-Schule","","50.446871979","9.629859924","1946","","0","","",""
"912","12034904","Neuhof J.-Kep.-Schule","","50.446907848","9.629520625","1946","","0","","",""
"913","12034905","Neuhof J.-Kep.-Schule","","50.446607237","9.629483074","1946","","0","","",""
"914","12034906","Neuhof J.-Kep.-Schule","","50.446574784","9.629819691","1946","","0","","",""
"915","12034907","Neuhof J.-Kep.-Schule","","50.446510733","9.630378932","1946","","0","","",""
"916","12034908","Neuhof J.-Kep.-Schule","","50.446485113","9.630584121","1946","","0","","",""
"917","12034909","Neuhof J.-Kep.-Schule","","50.446809637","9.629177302","1946","","0","","",""
"918","12202201","Niederröder Höhe","","50.524963","9.618165","2001","","0","","",""
"919","12223701","Niederrode Ortsmitte","","50.528914","9.619319","2001","","0","","",""
"920","12223702","Niederrode Ortsmitte","","50.528797","9.619794","2001","","0","","",""
"921","12023201","Niederbieber","","50.580038","9.802552","2074","","0","","",""
"922","12023202","Niederbieber","","50.580102","9.802332","2074","","0","","",""
"923","12212101","Niesig Gerloser Weg","","50.574107","9.674957","2001","","0","","",""
"924","12212102","Niesig Gerloser Weg","","50.574742","9.675718","2001","","0","","",""
"925","12212104","Niesig Gerloser Weg","","50.573452","9.674262","2001","","0","","",""
"926","12092401","Niesig Am Gerlos","","50.581868","9.673983","2001","","0","","",""
"927","12202301","Niesig Lehnerzer Straße","","50.577532","9.680953","2001","","0","","",""
"928","12202302","Niesig Lehnerzer Straße","","50.577848","9.681313","2001","","0","","",""
"929","12202401","Niesig Am Sandberg","","50.580377","9.67988","2001","","0","","",""
"930","12202402","Niesig Am Sandberg","","50.580588","9.679573","2001","","0","","",""
"931","12210201","Niesig Ottilienschule","","50.57729332","9.680152684","2001","","0","","",""
"932","12210202","Niesig Ottilienschule","","50.577180051","9.679972976","2001","","0","","",""
"933","12210001","Niesig Im Wiesengrund","","50.57181","9.67689","2001","","0","","",""
"934","12210002","Niesig Im Wiesengrund","","50.572047","9.676822","2001","","0","","",""
"935","12045101","Niederkalbach Gartenstraße","","50.43377","9.637105","1901","","0","","",""
"936","12045102","Niederkalbach Gartenstraße","","50.433437","9.636972","1901","","0","","",""
"937","10810101","Niederkalbach Kirche","","50.436725","9.637168","1901","","0","","",""
"938","10810102","Niederkalbach Kirche","","50.437538","9.636863","1901","","0","","",""
"939","12224801","Neuschwambach","","50.59413","9.98099","1713","","0","","",""
"940","12224802","Neuschwambach","","50.594255","9.980862","1713","","0","","",""
"941","12013601","Nüst Brückenmühle","","50.66166","9.754613","1645","","0","","",""
"942","12013602","Nüst Brückenmühle","","50.66154","9.754502","1645","","0","","",""
"943","12013301","Nüst","","50.660153","9.761648","1645","","0","","",""
"944","12013302","Nüst","","50.660192","9.761672","1645","","0","","",""
"945","12229801","Oberaschenbach","","50.654853","9.864782","1648","","0","","",""
"946","12225501","Oberbernhards","","50.556743","9.903765","1728","","0","","",""
"947","12225502","Oberbernhards","","50.556723","9.9037","1728","","0","","",""
"948","12014101","Oberfeld","","50.650308","9.697127","1601","","0","","",""
"949","12014102","Oberfeld","","50.650263","9.697187","1601","","0","","",""
"950","12096501","Obernhausen","","50.479583","9.943303","1847","","0","","",""
"951","12096502","Obernhausen","","50.479622","9.943158","1847","","0","","",""
"952","12021901","Obernüst","","50.616243","9.937258","1725","","0","","",""
"953","12021902","Obernüst","","50.616228","9.93723","1725","","0","","",""
"954","12022401","Obernüst Königsmühle","","50.614075","9.927533","1725","","0","","",""
"955","12022402","Obernüst Königsmühle","","50.61405","9.927483","1725","","0","","",""
"956","12020001","Oberrode Hubertusring","","50.540388","9.591717","2001","","0","","",""
"957","12020002","Oberrode Hubertusring","","50.540423","9.591777","2001","","0","","",""
"958","12215701","Oberrode Landesstraße","","50.540763","9.59324","2001","","0","","",""
"959","12215702","Oberrode Landesstraße","","50.541169","9.590504","2001","","0","","",""
"960","12234401","Oberrode Oberroder Straße","","50.537857","9.583425","2001","","0","","",""
"961","12234301","Oberrode Sandweg","","50.533758","9.578455","2001","","0","","",""
"962","12019702","Oberrode Am Strauch","","50.538883","9.585775","2001","","0","","",""
"963","12234201","Oberrode Am Vemel","","50.539252","9.582842","2001","","0","","",""
"964","12011701","Oberweisenborn","","50.787322","9.826202","1663","","0","","",""
"965","12036401","Oberkalbach Balzermühle","","50.409567","9.662738","1901","","0","","",""
"966","12064301","Oberkalbach Kirche","","50.405002","9.67426","1901","","0","","",""
"967","12064302","Oberkalbach Kirche","","50.404868","9.67514","1901","","0","","",""
"968","12068001","Oberkalbach Zum Taufstein","","50.403985","9.680085","1901","","0","","",""
"969","12022501","Obernüst Nüsterrasen","","50.617272","9.955538","1758","","0","","",""
"970","12022502","Obernüst Nüsterrasen","","50.617247","9.955335","1758","","0","","",""
"971","12022301","Obernüst Wallings","","50.62077","9.913802","1640","","0","","",""
"972","12022302","Obernüst Wallings","","50.62038","9.913758","1640","","0","","",""
"973","12013001","Oberrombach Forsthausstraße","","50.65851","9.684018","1601","","0","","",""
"974","12013002","Oberrombach Forsthausstraße","","50.65833","9.68585","1601","","0","","",""
"975","12055801","Oberrombach Oberfelder Straße","","50.657222","9.686802","1601","","0","","",""
"976","12055802","Oberrombach Oberfelder Straße","","50.657363","9.686395","1601","","0","","",""
"977","12225301","Oberrupsroth","","50.542505","9.939925","1728","","0","","",""
"978","12225302","Oberrupsroth","","50.542843","9.939705","1728","","0","","",""
"979","12227301","Oberrückersbach","","50.610448","9.965467","1713","","0","","",""
"980","12227302","Oberrückersbach","","50.610402","9.965507","1713","","0","","",""
"981","12039301","Stork Oberstork","","50.41656","9.488177","1925","","0","","",""
"982","12236801","Petersberg Am Rabenstein","","50.574922","9.706578","2078","","0","","",""
"983","12236802","Petersberg Am Rabenstein","","50.575019","9.706689","2078","","0","","",""
"984","12098601","Petersberg Bastheimstraße","","50.552606","9.704886","2055","","0","","",""
"985","12203001","Petersberg Berufsbildungszentrum","","50.56686","9.699142","2078","","0","","",""
"986","12203002","Petersberg Berufsbildungszentrum","","50.566797","9.699052","2078","","0","","",""
"987","12204701","Petersberg Dipperzer Straße","","50.553715","9.719233","2078","","0","","",""
"988","12204702","Petersberg Dipperzer Straße","","50.553592","9.716938","2078","","0","","",""
"989","10809501","Fulda St. Johannes-Kirche","","50.553391647","9.711393714","2055","","0","","",""
"990","10809502","Fulda St. Johannes-Kirche","","50.553124944","9.710595757","2055","","0","","",""
"991","12015301","Petersberg Horwieden","","50.565142","9.744367","2078","","0","","",""
"992","12015302","Petersberg Horwieden","","50.565005","9.74426","2078","","0","","",""
"993","12093801","Petersberg Hövelstraße","","50.554872","9.706353","2078","","0","","",""
"994","12093802","Petersberg Hövelstraße","","50.554903","9.706482","2078","","0","","",""
"995","12207001","Künzell Justus-Liebig-Center","","50.552333","9.720573","2001","","0","","",""
"996","12016601","Petersberg Konrad-Adenauer-Schule","","50.566636","9.704142","2078","","0","","",""
"997","12016602","Petersberg Konrad-Adenauer-Schule","","50.566572375","9.704481661","2078","","0","","",""
"998","12016603","Petersberg Konrad-Adenauer-Schule","","50.566656","9.705147","2078","","0","","",""
"999","12016604","Petersberg Konrad-Adenauer-Schule","","50.566781","9.705408","2078","","0","","",""
"1000","12016605","Petersberg Konrad-Adenauer-Schule","","50.566906","9.705644","2078","","0","","",""
"1001","12204601","Petersberg Propsteihaus","","50.559592","9.712603","2078","","0","","",""
"1002","12204602","Petersberg Propsteihaus","","50.559827","9.712977","2078","","0","","",""
"1003","12204501","Petersberg Quelle","","50.560315","9.708427","2078","","0","","",""
"1004","12204502","Petersberg Quelle","","50.560278","9.70836","2078","","0","","",""
"1005","12014901","Petersberg Rhönbergstraße","","50.55835","9.713267","2078","","0","","",""
"1006","12014902","Petersberg Rhönbergstraße","","50.55848","9.713723","2078","","0","","",""
"1007","12099601","Petersberg Am Roßrain","","50.561908","9.719395","2078","","0","","",""
"1008","12099602","Petersberg Am Roßrain","","50.561557","9.71901","2078","","0","","",""
"1009","12095401","Petersberg Am Roten Rain","","50.560412","9.721518","2078","","0","","",""
"1010","12095402","Petersberg Am Roten Rain","","50.560037","9.720397","2078","","0","","",""
"1011","12095403","Petersberg Am Roten Rain","","50.560355204","9.721303135","2078","","0","","",""
"1012","12015701","Petersberg Sebastianshof","","50.563337","9.734445","2078","","0","","",""
"1013","12015702","Petersberg Sebastianshof","","50.563475","9.735182","2078","","0","","",""
"1014","12204401","Petersberg Sportanlagen","","50.56259","9.704203","2078","","0","","",""
"1015","12204402","Petersberg Sportanlagen","","50.562673","9.704322","2078","","0","","",""
"1016","12203401","Petersberg Stettiner Straße","","50.56061","9.698973","2001","","0","","",""
"1017","12203402","Petersberg Stettiner Straße","","50.560562","9.699428","2001","","0","","",""
"1018","12216901","Petersberg Weiherweg","","50.563163","9.707235","2078","","0","","",""
"1019","12216902","Petersberg Weiherweg","","50.562912","9.707372","2078","","0","","",""
"1020","12015801","Petersberg Alte Ziegelei","","50.556125","9.710733","2078","","0","","",""
"1021","12015802","Petersberg Alte Ziegelei","","50.55575","9.710667","2078","","0","","",""
"1022","12041401","Pfaffenrod","","50.488252","9.472625","2128","","0","","",""
"1023","12041402","Pfaffenrod","","50.488382","9.473322","2128","","0","","",""
"1024","12223101","Pilgerzell Biligrimstraße","","50.525055","9.729123","2030","","0","","",""
"1025","12210301","Pilgerzell Florenberg","","50.523672","9.72534","2030","","0","","",""
"1026","12222701","Pilgerzell Frankenstraße","","50.521235","9.735628","2030","","0","","",""
"1027","12210401","Pilgerzell Kirche","","50.524932","9.728352","2030","","0","","",""
"1028","12210402","Pilgerzell Kirche","","50.524988","9.728403","2030","","0","","",""
"1029","12222301","Pilgerzell Wernaustraße","","50.520835","9.73152","2030","","0","","",""
"1030","12222302","Pilgerzell Wernaustraße","","50.520145","9.732573","2030","","0","","",""
"1031","12099201","Poppenhausen Gewerbegebiet Hugofluß","","50.491408","9.855622","1801","","0","","",""
"1032","12099202","Poppenhausen Gewerbegebiet Hugofluß","","50.4916","9.855067","1801","","0","","",""
"1033","12087701","Poppenhausen Kirche","","50.48819","9.867947","1801","","0","","",""
"1034","12087702","Poppenhausen Kirche","","50.488053","9.868653","1801","","0","","",""
"1035","12041501","Poppenrod","","50.498225","9.470428","2128","","0","","",""
"1036","12041502","Poppenrod","","50.497973","9.469962","2128","","0","","",""
"1037","12087801","Poppenhausen Wallweg","","50.489203","9.872107","1801","","0","","",""
"1038","12087802","Poppenhausen Wallweg","","50.48929","9.872035","1801","","0","","",""
"1039","12048501","Steinhaus Brücke","","50.59558","9.743938","2065","","0","","",""
"1040","12014801","Steinau Feuerwehrhaus","","50.5941","9.735928","2065","","0","","",""
"1041","12014802","Steinau Feuerwehrhaus","","50.59398","9.735952","2065","","0","","",""
"1042","12014701","Steinau Hainberg","","50.583985","9.72686","2065","","0","","",""
"1043","12014702","Steinau Hainberg","","50.58405","9.72723","2065","","0","","",""
"1044","11144501","Steinau An der Kirche","","50.59049","9.733218","2065","","0","","",""
"1045","11144502","Steinau An der Kirche","","50.590638","9.733267","2065","","0","","",""
"1046","12238801","Rabennest","","50.471905","9.861825","1801","","0","","",""
"1047","12238802","Rabennest","","50.471927","9.86179","1801","","0","","",""
"1048","12238701","Rabennest Gasthof Ebersburg","","50.472503","9.855293","1801","","0","","",""
"1049","12230601","Rasdorf Am Anger","","50.718162","9.897707","1630","","0","","",""
"1050","12097201","Rasdorf Jammersweg","","50.718357","9.902802","1630","","0","","",""
"1051","12097202","Rasdorf Jammersweg","","50.718395","9.903002","1630","","0","","",""
"1052","12230701","Rasdorf Landstraße","","50.716698","9.89911","1630","","0","","",""
"1053","12230702","Rasdorf Landstraße","","50.716718","9.899187","1630","","0","","",""
"1054","12097401","Rasdorf Vockenbach","","50.71739","9.889703","1630","","0","","",""
"1055","12097402","Rasdorf Vockenbach","","50.717447","9.889457","1630","","0","","",""
"1056","12011501","Reckrod","","50.774125","9.795318","1653","","0","","",""
"1057","12226401","Reulbach","","50.520512","9.96943","1740","","0","","",""
"1058","12229401","Rimmels","","50.631877","9.823183","1648","","0","","",""
"1059","12229402","Rimmels","","50.63181","9.823003","1648","","0","","",""
"1060","12094501","Rothemann Barbarastraße","","50.466183","9.706208","1802","","0","","",""
"1061","12094502","Rothemann Barbarastraße","","50.466388","9.70625","1802","","0","","",""
"1062","12094601","Rothemann Hattenhofer Straße","","50.46426","9.705805","1802","","0","","",""
"1063","12094602","Rothemann Hattenhofer Straße","","50.46428","9.705813","1802","","0","","",""
"1064","12223501","Rodges TP-West/Böcklerstraße","","50.553442","9.596152","2001","","0","","",""
"1065","12214801","Rodges TP-West/Dieselstraße","","50.552628","9.598835","2001","","0","","",""
"1066","12020101","Rodges","","50.553893","9.606743","2001","","0","","",""
"1067","12020102","Rodges","","50.553995","9.606387","2001","","0","","",""
"1068","12214701","Rodges TP-West/Heinkelstraße","","50.557187","9.590612","2001","","0","","",""
"1069","12238901","Rodholz","","50.489025","9.891395","1801","","0","","",""
"1070","12234801","Rodges TP-West/Karrystraße","","50.560258","9.599363","2001","","0","","",""
"1071","12223601","Rodges TP-West/Kruppstraße","","50.559113","9.593775","2001","","0","","",""
"1072","12023001","Rodges TP-West/Schleyerstraße","","50.557232","9.601023","2001","","0","","",""
"1073","12239001","Rodholz Schwarzerden","","50.481768","9.909078","1801","","0","","",""
"1074","12761601","Rommerz Egerstraße","","50.452018","9.58553","1920","","0","","",""
"1075","12761602","Rommerz Egerstraße","","50.452485","9.586468","1920","","0","","",""
"1076","12761701","Rommerz Hainweg","","50.451982","9.570065","1920","","0","","",""
"1077","12761702","Rommerz Hainweg","","50.45194","9.571","1920","","0","","",""
"1078","12090501","Rommerz Maigrabenstraße","","50.450747","9.577335","1920","","0","","",""
"1079","12223001","Rommersrain","","50.597485","9.985542","1740","","0","","",""
"1080","12223002","Rommersrain","","50.597708","9.985607","1740","","0","","",""
"1081","12761801","Rommerz Ortsmitte","","50.450745","9.576435","1920","","0","","",""
"1082","12761802","Rommerz Ortsmitte","","50.450667","9.57702","1920","","0","","",""
"1083","12093401","Rothenkirchen Bornfeldstraße","","50.719825","9.699162","1650","","0","","",""
"1084","12093402","Rothenkirchen Bornfeldstraße","","50.719715","9.69893","1650","","0","","",""
"1085","12012701","Roßbach","","50.707178","9.777102","1645","","0","","",""
"1086","12012702","Roßbach","","50.707118","9.777073","1645","","0","","",""
"1087","12010601","Rothenkirchen Ortsmitte","","50.721723","9.705005","1650","","0","","",""
"1088","12010602","Rothenkirchen Ortsmitte","","50.721733","9.704965","1650","","0","","",""
"1089","12054001","Rudolphshan Abzweig","","50.65862","9.698052","1601","","0","","",""
"1090","12054002","Rudolphshan Abzweig","","50.65834","9.699087","1601","","0","","",""
"1091","12013101","Rudolphshan Ortsmitte","","50.663388","9.699082","1601","","0","","",""
"1092","12037901","Rückers Eckenheim","","50.406883","9.577477","1925","","0","","",""
"1093","12037902","Rückers Eckenheim","","50.406948","9.577502","1925","","0","","",""
"1094","12038001","Rückers Keutzelbuch","","50.396447","9.562852","1925","","0","","",""
"1095","12038002","Rückers Keutzelbuch","","50.396558","9.562717","1925","","0","","",""
"1096","12013401","Rückers Kirche","","50.644515","9.745045","1645","","0","","",""
"1097","12013402","Rückers Kirche","","50.64455","9.745038","1645","","0","","",""
"1098","12037701","Rückers Leimenhof","","50.402657","9.55471","1925","","0","","",""
"1099","12037702","Rückers Leimenhof","","50.402608","9.554692","1925","","0","","",""
"1100","12037801","Rückers Ortsmitte","","50.406892","9.580152","1925","","0","","",""
"1101","12037802","Rückers Ortsmitte","","50.406933","9.58015","1925","","0","","",""
"1102","12074001","Rückers Schule","","50.405375","9.578017","1925","","0","","",""
"1103","12074002","Rückers Schule","","50.405343","9.577877","1925","","0","","",""
"1104","12094901","Sandberg","","50.456927","9.942208","1847","","0","","",""
"1105","12094902","Sandberg","","50.456902","9.942217","1847","","0","","",""
"1106","12028601","Sandenhof","","50.577858","9.995848","1740","","0","","",""
"1107","12028602","Sandenhof","","50.578022","9.995777","1740","","0","","",""
"1108","12054101","Sargenzell Abzweig","","50.658605","9.737045","1645","","0","","",""
"1109","12054102","Sargenzell Abzweig","","50.658142","9.739123","1645","","0","","",""
"1110","12013201","Sargenzell Ortsmitte","","50.662828","9.739132","1645","","0","","",""
"1111","12013901","Sargenzell Praforst","","50.658207","9.723592","1645","","0","","",""
"1112","12013902","Sargenzell Praforst","","50.658308","9.724448","1645","","0","","",""
"1113","12238001","Schachen","","50.465638","9.918028","1847","","0","","",""
"1114","12022901","Kleinsassen Schackau","","50.565407","9.871357","1701","","0","","",""
"1115","12022902","Kleinsassen Schackau","","50.565447","9.871335","1701","","0","","",""
"1116","12226101","Seiferts Ulsterstraße","","50.525102","10.015053","1747","","0","","",""
"1117","12226102","Seiferts Ulsterstraße","","50.523722","10.016635","1747","","0","","",""
"1118","12222801","Seiferts Wiesenweg","","50.528038","10.013615","1747","","0","","",""
"1119","12222802","Seiferts Wiesenweg","","50.527992","10.013638","1747","","0","","",""
"1120","12231002","Setzelbach","","50.692793","9.907547","1630","","0","","",""
"1121","12201901","Sickels Günther-Groenhoff-Straße","","50.53632","9.64756","2001","","0","","",""
"1122","12201902","Sickels Günther-Groenhoff-Straße","","50.536258","9.647398","2001","","0","","",""
"1123","12202001","Sickels An der Mariengrotte","","50.53506","9.641235","2001","","0","","",""
"1124","12202002","Sickels An der Mariengrotte","","50.534982","9.641058","2001","","0","","",""
"1125","12098401","Sickels Pröbelsfeld","","50.536872","9.654433","2001","","0","","",""
"1126","12098402","Sickels Pröbelsfeld","","50.53697","9.654601","2001","","0","","",""
"1127","12030603","Sickels Sägewerk","","50.535453","9.642797","2001","","0","","",""
"1128","12030604","Sickels Sägewerk","","50.535508","9.643097","2001","","0","","",""
"1129","12229301","Silges Oberdorf","","50.635881912","9.816258699","1648","","0","","",""
"1130","12229302","Silges Oberdorf","","50.635923","9.816248","1648","","0","","",""
"1131","12091801","Silges Unterdorf","","50.637437","9.811078","1648","","0","","",""
"1132","12091802","Silges Unterdorf","","50.63751","9.811177","1648","","0","","",""
"1133","12027901","Simmershausen Oberdorf","","50.590592","10.028503","1740","","0","","",""
"1134","12027902","Simmershausen Oberdorf","","50.591032","10.02922","1740","","0","","",""
"1135","12027101","Simmershausen Unterdorf","","50.593275","10.032263","1740","","0","","",""
"1136","12027102","Simmershausen Unterdorf","","50.593322","10.032435","1740","","0","","",""
"1137","12228001","Schlitzenhausen Sinswinden","","50.671125","9.994062","1710","","0","","",""
"1138","12224601","Schlitzenhausen Tanner Straße","","50.663855","10.004663","1710","","0","","",""
"1139","12224603","Schlitzenhausen Tanner Straße","","50.663933","10.005127","1710","","0","","",""
"1140","12224604","Schlitzenhausen Tanner Straße","","50.663505","10.005985","1710","","0","","",""
"1141","12056901","Schlotzau Am Küppel","","50.688757","9.644328","1613","","0","","",""
"1142","12010301","Schlotzau Bergstraße","","50.690812","9.643587","1613","","0","","",""
"1143","12041101","Schletzenhausen","","50.520672","9.491148","2101","","0","","",""
"1144","12041102","Schletzenhausen","","50.52061","9.491037","2101","","0","","",""
"1145","12227201","Schlitzenhausen Schilfweg","","50.662542","9.99963","1710","","0","","",""
"1146","12227202","Schlitzenhausen Schilfweg","","50.662323","9.99926","1710","","0","","",""
"1147","12046201","Schmalnau Abzw. Stellberg","","50.43664","9.801997","1806","","0","","",""
"1148","12046202","Schmalnau Abzw. Stellberg","","50.436738","9.801817","1806","","0","","",""
"1149","11106901","Schmalnau Bahnhof","","50.45611","9.788029","1806","","0","","",""
"1150","11106902","Schmalnau Bahnhof","","50.456084","9.788076","1806","","0","","",""
"1151","10812101","Schmalnau Hauptstraße","","50.452832","9.792565","1806","","0","","",""
"1152","10812102","Schmalnau Hauptstraße","","50.452717","9.792568","1806","","0","","",""
"1153","12030701","Schmalnau Haus Helfrich","","50.433353","9.807227","1806","","0","","",""
"1154","12030702","Schmalnau Haus Helfrich","","50.433348","9.807192","1806","","0","","",""
"1155","12012001","Soisdorf","","50.764288","9.894915","1658","","0","","",""
"1156","12012002","Soisdorf","","50.76423","9.895067","1658","","0","","",""
"1157","12238101","Schachen Sommerberg","","50.476433","9.90957","1847","","0","","",""
"1158","12228401","Sonnenküppel","","50.64597","10.033077","1710","","0","","",""
"1159","12228402","Sonnenküppel","","50.646177","10.033063","1710","","0","","",""
"1160","12055901","Steinbach Am Ring","","50.732485","9.74519","1650","","0","","",""
"1161","12055902","Steinbach Am Ring","","50.732662","9.745288","1650","","0","","",""
"1162","12023701","Elters Steens","","50.568258","9.90582","1701","","0","","",""
"1163","12023702","Elters Steens","","50.568305","9.9057","1701","","0","","",""
"1164","12009901","Steinbach Grundmühle","","50.724542","9.734803","1650","","0","","",""
"1165","12009902","Steinbach Grundmühle","","50.724517","9.734723","1650","","0","","",""
"1166","12009201","Steinbach Kreuzgasse","","50.729777","9.743622","1650","","0","","",""
"1167","12009202","Steinbach Kreuzgasse","","50.729713","9.743443","1650","","0","","",""
"1168","12065501","Stork Oberstork DGH","","50.418972","9.48804","1925","","0","","",""
"1169","12039401","Stork Unterstork","","50.418112","9.500262","1925","","0","","",""
"1170","12039402","Stork Unterstork","","50.418093","9.50048","1925","","0","","",""
"1171","12068601","Struth Bildstock","","50.419793","9.538155","1925","","0","","",""
"1172","12068701","Struth Weiherweg","","50.41728","9.53939","1925","","0","","",""
"1173","12027801","Steinwand Grabenhöfchen","","50.521025","9.905198","1820","","0","","",""
"1174","12027802","Steinwand Grabenhöfchen","","50.52072","9.904613","1820","","0","","",""
"1175","12028801","Steinwand Kreuzung","","50.512003","9.869482","1820","","0","","",""
"1176","12028802","Steinwand Kreuzung","","50.511838","9.8702","1820","","0","","",""
"1177","12096401","Steinwand Leimbachshof","","50.49266","9.843142","1801","","0","","",""
"1178","12096402","Steinwand Leimbachshof","","50.492662","9.843028","1801","","0","","",""
"1179","12031801","Steinwand Mittelberg","","50.514875","9.895897","1820","","0","","",""
"1180","12031802","Steinwand Mittelberg","","50.514793","9.895953","1820","","0","","",""
"1181","12095601","Steinwand Remerz","","50.490227","9.831848","1801","","0","","",""
"1182","12095602","Steinwand Remerz","","50.490095","9.831347","1801","","0","","",""
"1183","12015001","Stöckels","","50.570312","9.736565","2035","","0","","",""
"1184","12015002","Stöckels","","50.570365","9.736777","2035","","0","","",""
"1185","12021801","Schwarzbach","","50.60872","9.900043","1725","","0","","",""
"1186","12021802","Schwarzbach","","50.608655","9.900292","1725","","0","","",""
"1187","12222601","Schwarzenborn","","50.620343","9.9639","1713","","0","","",""
"1188","12222602","Schwarzenborn","","50.620362","9.963443","1713","","0","","",""
"1189","12037601","Schweben Sportplatz","","50.426887","9.598217","1925","","0","","",""
"1190","12037602","Schweben Sportplatz","","50.426487","9.597747","1925","","0","","",""
"1191","12024601","Tann Hasenmühle-B278","","50.651398","10.017755","1710","","0","","",""
"1192","12024602","Tann Hasenmühle-B278","","50.651592","10.016682","1710","","0","","",""
"1193","12024001","Tann Marktstraße","","50.642703","10.022897","1710","","0","","",""
"1194","12024002","Tann Marktstraße","","50.642843","10.023032","1710","","0","","",""
"1195","12226601","Tann Rhönhalle","","50.640652","10.024618","1710","","0","","",""
"1196","12024201","Tann Rhönstraße","","50.64828","10.02162","1710","","0","","",""
"1197","12024202","Tann Rhönstraße","","50.648635","10.02153","1710","","0","","",""
"1198","12024101","Tann Stadttor","","50.640328","10.022108","1710","","0","","",""
"1199","12024102","Tann Stadttor","","50.64024","10.021992","1710","","0","","",""
"1200","12030101","Thalau Bonifatiusstraße","","50.440095","9.772957","1806","","0","","",""
"1201","12226001","Thaiden","","50.540973","10.015012","1747","","0","","",""
"1202","12226002","Thaiden","","50.540797","10.015087","1747","","0","","",""
"1203","12228101","Theobaldshof Dermbacher Straße","","50.669505","10.039085","1710","","0","","",""
"1204","12228102","Theobaldshof Dermbacher Straße","","50.669515","10.038063","1710","","0","","",""
"1205","12228801","Theobaldshof DGH","","50.666983","10.04264","1710","","0","","",""
"1206","12228802","Theobaldshof DGH","","50.667072","10.042363","1710","","0","","",""
"1207","12065401","Tiefengruben Feuerwehrhaus","","50.473147","9.647143","1934","","0","","",""
"1208","12034201","Tiefengruben Kasseler Straße","","50.47303","9.647857","1934","","0","","",""
"1209","12034202","Tiefengruben Kasseler Straße","","50.473065","9.648127","1934","","0","","",""
"1210","12021501","Traisbach","","50.59167","9.786683","2068","","0","","",""
"1211","12021502","Traisbach","","50.591605","9.786697","2068","","0","","",""
"1212","12011401","Treischfeld","","50.756333","9.890635","1658","","0","","",""
"1213","12011402","Treischfeld","","50.75674","9.891245","1658","","0","","",""
"1214","12020701","Unterbernhards Am Michaelshof","","50.591973","9.953318","1728","","0","","",""
"1215","12020702","Unterbernhards Am Michaelshof","","50.59206","9.953342","1728","","0","","",""
"1216","12025601","Dassen Unterdassen","","50.508945","9.773205","2077","","0","","",""
"1217","12025602","Dassen Unterdassen","","50.508963","9.773072","2077","","0","","",""
"1218","12066301","Uffhausen Am Kirchberg","","50.57132","9.527627","2109","","0","","",""
"1219","12066302","Uffhausen Am Kirchberg","","50.571217","9.527602","2109","","0","","",""
"1220","12040401","Uffhausen","","50.579895","9.5307","2109","","0","","",""
"1221","12040402","Uffhausen","","50.579702","9.530733","2109","","0","","",""
"1222","12055601","Ufhausen Abt-Sauer-Straße","","50.772718","9.859572","1658","","0","","",""
"1223","12055602","Ufhausen Abt-Sauer-Straße","","50.772697","9.859527","1658","","0","","",""
"1224","12011801","Ufhausen Vor dem Tor","","50.776342","9.863217","1658","","0","","",""
"1225","12011901","Ufhausen Unterufhausen","","50.77003","9.87793","1658","","0","","",""
"1226","12011902","Ufhausen Unterufhausen","","50.769885","9.878473","1658","","0","","",""
"1227","12225101","Unterrupsroth","","50.553007","9.933443","1728","","0","","",""
"1228","12224701","Unterrückersbach","","50.610968","9.983633","1713","","0","","",""
"1229","12224702","Unterrückersbach","","50.611318","9.98444","1713","","0","","",""
"1230","12224703","Unterrückersbach","","50.61102","9.983483","1713","","0","","",""
"1231","12064401","Uttrichshausen Abzw. Döllbach","","50.416035","9.729793","1935","","0","","",""
"1232","12064402","Uttrichshausen Abzw. Döllbach","","50.415867","9.72981","1935","","0","","",""
"1233","12073701","Uttrichshausen Brücke","","50.41154093","9.732313603","1935","","0","","",""
"1234","12073702","Uttrichshausen Brücke","","50.411563","9.732407","1935","","0","","",""
"1235","12044701","Uttrichshausen Erlingsmühle","","50.407197","9.725343","1935","","0","","",""
"1236","12044702","Uttrichshausen Erlingsmühle","","50.407253","9.725323","1935","","0","","",""
"1237","12073801","Uttrichshausen Feuerwehrhaus","","50.410682","9.729402","1935","","0","","",""
"1238","12073802","Uttrichshausen Feuerwehrhaus","","50.410823","9.729472","1935","","0","","",""
"1239","12036101","Veitsteinbach Landrückenstraße","","50.393755","9.63885","1901","","0","","",""
"1240","12036102","Veitsteinbach Landrückenstraße","","50.393811","9.638792","1901","","0","","",""
"1241","12036001","Veitsteinbach Ortsmitte","","50.386985","9.645748","1901","","0","","",""
"1242","12029501","Obernhausen Wasserkuppe","","50.498533","9.946788","1805","","0","","",""
"1243","12094701","Welkers Industriegebiet","","50.483505","9.722418","1802","","0","","",""
"1244","12094801","Welkers Rothemanner Straße","","50.474068","9.723015","1802","","0","","",""
"1245","12094802","Welkers Rothemanner Straße","","50.474133","9.722962","1802","","0","","",""
"1246","12231901","Welkers Talstraße","","50.47896","9.721103","1802","","0","","",""
"1247","12231902","Welkers Talstraße","","50.47896","9.721307","1802","","0","","",""
"1248","12023901","Wendershausen Hauptstraße","","50.632732","10.017068","1710","","0","","",""
"1249","12045901","Wendershausen Raiffeisen","","50.629333","10.016225","1710","","0","","",""
"1250","12045902","Wendershausen Raiffeisen","","50.629192","10.016195","1710","","0","","",""
"1251","12045801","Wendershausen Tannfeldstraße","","50.63463","10.017517","1710","","0","","",""
"1252","12029601","Weyhers Burgstraße","","50.485247","9.798483","1822","","0","","",""
"1253","12029602","Weyhers Burgstraße","","50.486027","9.799322","1822","","0","","",""
"1254","12030001","Weyhers Fuldaer Straße","","50.489265","9.801655","1822","","0","","",""
"1255","12030002","Weyhers Fuldaer Straße","","50.489043","9.801335","1822","","0","","",""
"1256","12027501","Wickers Tannenfelsstraße","","50.542812","9.988072","1740","","0","","",""
"1257","12027502","Wickers Tannenfelsstraße","","50.543233","9.989265","1740","","0","","",""
"1258","12054201","Wisselsrod","","50.53642","9.777232","2070","","0","","",""
"1259","12054202","Wisselsrod","","50.536327","9.777322","2070","","0","","",""
"1260","12024801","Wissels","","50.543303","9.757452","2045","","0","","",""
"1261","12024802","Wissels","","50.543467","9.757548","2045","","0","","",""
"1262","12021701","Wittges","","50.587978","9.869848","1701","","0","","",""
"1263","12021702","Wittges","","50.587932","9.870242","1701","","0","","",""
"1264","12026201","Wolferts","","50.537832","9.861695","2070","","0","","",""
"1265","12026202","Wolferts","","50.537813","9.861313","2070","","0","","",""
"1266","12046001","Wiesen Dorfstraße","","50.584567","9.781605","2068","","0","","",""
"1267","12046002","Wiesen Dorfstraße","","50.584218","9.781412","2068","","0","","",""
"1268","12080101","Wiesen Friedhof","","50.586068","9.786068","2068","","0","","",""
"1269","12080102","Wiesen Friedhof","","50.586087","9.786088","2068","","0","","",""
"1270","12021401","Wiesen Mittelberg","","50.585843","9.774615","2068","","0","","",""
"1271","12021402","Wiesen Mittelberg","","50.586328","9.775637","2068","","0","","",""
"1272","12011601","Wölf","","50.783103","9.808478","1663","","0","","",""
"1273","12221901","Wüstensachsen Otto-Keidel-Straße","","50.498613","9.999535","1747","","0","","",""
"1274","12226301","Wüstensachsen Rathaus","","50.500865","10.004718","1747","","0","","",""
"1275","12226302","Wüstensachsen Rathaus","","50.50078","10.004692","1747","","0","","",""
"1276","12221801","Wüstensachsen Tanner Straße","","50.503358","10.007403","1747","","0","","",""
"1277","12221802","Wüstensachsen Tanner Straße","","50.503408","10.007422","1747","","0","","",""
"1278","12019001","Zell","","50.518522","9.628302","2001","","0","","",""
"1279","12019002","Zell","","50.518437","9.627947","2001","","0","","",""
"1280","12031401","Zillbach","","50.428093","9.72211","1845","","0","","",""
"1281","12031402","Zillbach","","50.428098","9.722075","1845","","0","","",""
"1282","12018901","Zirkenbach Dreilindenweg","","50.520283","9.64301","2001","","0","","",""
"1283","12018902","Zirkenbach Dreilindenweg","","50.52025","9.644707","2001","","0","","",""
"1284","12011101","Zirkenbach Auf der Wolfsheide","","50.519698","9.637335","2001","","0","","",""
"1285","12011102","Zirkenbach Auf der Wolfsheide","","50.519695","9.63719","2001","","0","","",""
